City_ID,City,Lat,Lng,Max Temp,Humidity,Cloudiness,Wind Speed,Country,Date
0,ushuaia,-54.8,-68.3,47.64,97,100,5.28,AR,1707530936
1,waitangi,-43.9535,-176.5597,64.81,71,38,8.01,NZ,1707530936
2,puerto ayora,-0.7393,-90.3518,79.56,95,41,7.45,EC,1707530936
3,ketchikan,55.3422,-131.6461,42.78,97,100,6.13,US,1707530936
4,port-aux-francais,-49.35,70.2167,46.35,96,96,28.68,TF,1707530937
5,papatowai,-46.5619,169.4708,53.73,78,100,15.32,NZ,1707530937
6,qaqortoq,60.7167,-46.0333,15.21,95,100,7.43,GL,1707530937
7,freeport,40.6576,-73.5832,46.38,91,0,4.61,US,1707530937
8,mount pearl,47.5166,-52.7813,26.96,94,11,4.0,CA,1707530937
9,adamstown,-25.066,-130.1015,77.29,91,100,23.96,PN,1707530937
10,hithadhoo,-0.6,73.0833,83.08,67,50,14.34,MV,1707530937
11,avarua,-21.2078,-159.775,84.25,74,20,19.57,CK,1707530937
12,port hedland,-20.3167,118.5667,104.05,22,0,11.5,AU,1707530937
13,san antonio de pale,-1.4014,5.6325,82.27,75,78,3.8,GQ,1707530937
14,yellowknife,62.456,-114.3525,-13.94,100,9,2.89,CA,1707530937
15,waingapu,-9.6567,120.2641,83.41,74,22,12.59,ID,1707530757
16,grytviken,-54.2811,-36.5092,39.18,96,100,10.71,GS,1707530937
17,aykhal,66.0,111.5,-26.43,100,100,2.95,RU,1707530938
18,san pedro de macoris,18.4616,-69.2972,69.93,74,0,8.3,DO,1707530938
19,anadyr,64.75,177.4833,0.1,84,0,13.0,RU,1707530938
20,guerrero negro,27.9769,-114.0611,58.24,64,0,15.93,MX,1707530938
21,groningen,53.25,6.75,48.27,94,75,6.91,NL,1707530639
22,blackmans bay,-43.0167,147.3167,65.52,48,6,3.0,AU,1707530938
23,cabo san lucas,22.8909,-109.9124,68.5,71,100,11.5,MX,1707530856
24,saint-philippe,-21.3585,55.7679,78.39,91,100,6.51,RE,1707530938
25,port lincoln,-34.7333,135.8667,70.66,64,4,15.43,AU,1707530938
26,talnakh,69.4865,88.3972,-12.23,79,95,4.99,RU,1707530938
27,whitehorse,60.7161,-135.0538,19.02,79,100,19.57,CA,1707530938
28,puerto natales,-51.7236,-72.4875,50.41,92,0,4.68,CL,1707530938
29,georgetown,5.4112,100.3354,84.13,61,20,4.61,MY,1707530905
30,hermanus,-34.4187,19.2345,59.81,76,77,3.71,ZA,1707530938
31,landsberg am lech,48.0482,10.8828,44.19,88,99,2.3,DE,1707530939
32,ilulissat,69.2167,-51.1,8.62,43,100,10.36,GL,1707530939
33,tharangambadi,11.0319,79.8528,77.13,80,100,6.06,IN,1707530939
34,afaahiti,-17.75,-149.2833,75.07,84,100,9.57,PF,1707530939
35,zaozersk,69.4005,32.4476,3.9,91,100,4.12,RU,1707530939
36,mount isa,-20.7333,139.5,92.97,49,40,8.05,AU,1707530939
37,petropavlovsk-kamchatsky,53.0452,158.6483,16.45,79,0,8.01,RU,1707530939
38,finote selam,10.7,37.2667,65.25,41,94,1.88,ET,1707530939
39,agat village,13.3886,144.6585,86.94,71,20,20.71,GU,1707530939
40,iqaluit,63.7506,-68.5145,-22.31,67,24,10.0,CA,1707530939
41,ouadda,8.0777,22.4007,69.28,31,5,4.14,CF,1707530939
42,loango,-4.6719,11.8312,80.26,94,75,4.61,CG,1707530939
43,hawaiian paradise park,19.5933,-154.9731,76.51,77,40,12.66,US,1707530940
44,micheweni,-4.9667,39.8333,83.39,75,73,13.35,TZ,1707530940
45,utrik,11.2278,169.8474,79.02,80,100,23.11,MH,1707530940
46,haiku-pauwela,20.9219,-156.3051,78.82,71,40,11.5,US,1707530940
47,tralee,52.2704,-9.7026,42.71,91,39,11.9,IE,1707530940
48,rongelap,11.1635,166.8941,78.78,80,100,24.11,MH,1707530940
49,aras-asan,8.8908,126.3033,80.58,78,29,11.1,PH,1707530940
50,siwa oasis,29.2041,25.5195,54.41,40,0,3.27,EG,1707530940
51,chonchi,-42.6128,-73.8092,60.01,95,88,2.84,CL,1707530940
52,stanley,54.868,-1.6985,41.72,100,100,3.44,GB,1707530940
53,college,64.8569,-147.8028,23.79,73,75,0.0,US,1707530940
54,yigo village,13.5361,144.8886,85.32,67,20,20.71,GU,1707530940
55,alaghsas,17.0187,8.0168,62.49,16,16,8.57,NE,1707530941
56,sitka,57.0531,-135.33,42.69,75,100,14.97,US,1707530941
57,meknes,33.9776,-5.525,53.8,93,88,18.57,MA,1707530941
58,kapuskasing,49.4169,-82.4331,37.4,87,100,11.5,CA,1707530649
59,ocean city,39.2776,-74.5746,43.99,89,100,3.0,US,1707530941
60,polyarnyy,69.1989,33.4478,6.57,89,100,5.1,RU,1707530941
61,edinburgh of the seven seas,-37.0676,-12.3116,67.32,95,100,21.16,SH,1707530941
62,tura,25.5198,90.2201,56.88,52,0,5.44,IN,1707530941
63,udachny,66.4167,112.4,-29.29,100,99,2.48,RU,1707530941
64,banda aceh,5.5577,95.3222,83.44,75,19,19.71,ID,1707530941
65,woolgoolga,-30.1106,153.2007,81.05,70,18,15.14,AU,1707530942
66,nieuw amsterdam,5.8833,-55.0833,78.96,77,74,9.48,SR,1707530942
67,champerico,14.3,-91.9167,78.12,69,1,6.2,GT,1707530942
68,ribeira grande,38.5167,-28.7,56.77,95,100,11.01,PT,1707530942
69,pathein,16.7833,94.7333,74.62,56,9,7.74,MM,1707530942
70,sierra grande,-41.606,-65.3557,69.48,57,100,12.53,AR,1707530942
71,selfoss,63.9331,-20.9971,19.85,77,40,10.27,IS,1707530942
72,magadan,59.5667,150.8,-9.47,71,17,5.01,RU,1707530942
73,horta,38.5333,-28.6333,56.01,95,100,11.01,PT,1707530943
74,horsham,51.064,-0.3272,50.11,86,40,5.75,GB,1707530943
75,celica,-4.1167,-79.95,69.01,99,86,1.01,EC,1707530943
76,shijiang,27.0819,110.7933,49.77,68,13,2.28,CN,1707530943
77,port elizabeth,-33.918,25.5701,68.09,92,3,8.01,ZA,1707530943
78,nar'yan-mar,67.6713,53.087,-2.88,90,13,11.99,RU,1707530943
79,isafjordur,66.0755,-23.124,28.9,61,100,13.67,IS,1707530943
80,broken hill,-31.95,141.4333,85.89,23,0,11.83,AU,1707530943
81,kodiak,57.79,-152.4072,38.71,81,40,13.8,US,1707530943
82,bethel,41.3712,-73.414,43.66,82,0,0.0,US,1707530943
83,wailua homesteads,22.0669,-159.378,79.23,73,20,9.22,US,1707530944
84,lihue,21.9789,-159.3672,79.84,73,20,9.22,US,1707530944
85,fort mcmurray,56.7268,-111.381,18.91,86,100,0.0,CA,1707530944
86,daru,-9.0763,143.2092,90.5,58,100,1.79,PG,1707530944
87,albany,42.6001,-73.9662,48.61,75,80,3.38,US,1707530944
88,vorkuta,67.5,64.0,-9.49,90,95,15.08,RU,1707530944
89,nova olimpia,-14.7972,-57.2881,77.0,86,79,4.12,BR,1707530944
90,kokpekty,48.75,82.4,18.28,86,98,8.48,KZ,1707530944
91,suonenjoki,62.6167,27.1333,10.13,88,100,4.59,FI,1707530944
92,nova xavantina,-14.6667,-52.35,78.31,79,91,1.32,BR,1707530910
93,marabba,12.35,32.1833,72.03,18,0,8.57,SD,1707530944
94,altai,46.3722,96.2583,9.01,51,50,5.37,MN,1707530944
95,yuza,39.0,139.9167,41.54,52,40,5.5,JP,1707530945
96,bredasdorp,-34.5322,20.0403,63.34,66,64,5.77,ZA,1707530945
97,aasiaat,68.7098,-52.8699,1.02,78,100,11.41,GL,1707530945
98,beloyarskiy,63.7119,66.6722,6.01,93,99,8.01,RU,1707530945
99,igarka,67.4667,86.5833,4.17,82,100,14.43,RU,1707530945
100,badger,64.8,-147.5333,23.7,79,75,0.0,US,1707530945
101,invercargill,-46.4,168.35,58.01,67,88,20.0,NZ,1707530945
102,sheridan,44.8333,-106.9173,31.01,88,100,10.36,US,1707530945
103,mhamid,29.82,-5.72,62.8,70,100,22.82,MA,1707530945
104,baymak,52.5933,58.3225,-2.24,91,64,10.76,RU,1707530945
105,sukumo,32.9333,132.7333,51.15,54,14,11.61,JP,1707530946
106,queenstown,-31.8976,26.8753,57.42,72,100,5.48,ZA,1707530821
107,dudinka,69.4058,86.1778,-10.32,87,100,5.99,RU,1707530946
108,chongwe,-15.3292,28.682,64.31,77,100,1.74,ZM,1707530946
109,kalemie,-5.9475,29.1947,68.41,95,80,1.41,CD,1707530946
110,new norfolk,-42.7826,147.0587,66.7,29,0,2.73,AU,1707530946
111,gadzhiyevo,69.2551,33.3362,7.65,87,100,5.66,RU,1707530946
112,saipan,15.1355,145.701,84.9,65,20,24.16,MP,1707530946
113,louiseville,46.2559,-72.9415,36.45,87,100,5.75,CA,1707530726
114,touros,-5.1989,-35.4608,82.0,81,56,18.68,BR,1707530946
115,tazovsky,67.4667,78.7,3.2,96,100,11.45,RU,1707530946
116,vilyuchinsk,52.9306,158.4028,17.92,74,17,7.07,RU,1707530947
117,kapa'a,22.0752,-159.319,80.58,73,20,9.22,US,1707530947
118,tiksi,71.6872,128.8694,-11.18,100,100,4.21,RU,1707530947
119,bilibino,68.0546,166.4372,-17.91,96,97,1.7,RU,1707530947
120,port moresby,-9.4431,147.1797,85.71,63,99,8.16,PG,1707530947
121,muynoq,43.7683,59.0214,42.84,90,26,8.68,UZ,1707530947
122,inarajan village,13.2736,144.7484,86.97,78,70,18.07,GU,1707530947
123,whitehaven,54.549,-3.5841,45.66,90,100,5.01,GB,1707530947
124,lorengau,-2.0226,147.2712,83.48,76,100,8.43,PG,1707530947
125,brezina,33.0989,1.2608,58.32,26,89,23.85,DZ,1707530947
126,island harbour,50.724,-1.2758,49.21,94,100,7.31,GB,1707530948
127,govindgarh,27.5,76.9833,48.54,49,0,0.98,IN,1707530948
128,balakhta,55.38,91.6,37.35,83,100,18.32,RU,1707530948
129,port mathurin,-19.6833,63.4167,80.4,80,99,28.74,MU,1707530948
130,ahar,38.4774,47.0699,34.18,86,57,6.6,IR,1707530948
131,sisimiut,66.9395,-53.6735,2.23,90,100,14.23,GL,1707530948
132,kourou,5.1552,-52.6478,80.65,90,16,7.85,GF,1707530948
133,zhezqazghan,47.7833,67.7667,28.98,93,75,8.95,KZ,1707530948
134,papao,-17.75,-149.55,76.68,76,100,3.76,PF,1707530948
135,kingston,17.997,-76.7936,77.95,76,20,5.75,JM,1707530840
136,codrington,-38.2667,141.9667,65.1,64,40,11.12,AU,1707530949
137,uturoa,-16.7333,-151.4333,80.31,91,100,21.47,PF,1707530949
138,lerwick,60.1545,-1.1494,35.6,49,100,18.92,GB,1707530949
139,gerash,27.6652,54.1371,46.83,40,51,0.51,IR,1707530949
140,punta arenas,-53.15,-70.9167,51.91,76,0,12.66,CL,1707530949
141,tazacorte,28.629,-17.9293,68.97,98,75,8.01,ES,1707530949
142,scarborough,54.2797,-0.4044,47.77,94,100,1.01,GB,1707530949
143,matoury,4.8483,-52.3317,80.56,89,40,1.14,GF,1707530949
144,saint-pierre,-21.3393,55.4781,78.48,69,0,10.36,RE,1707530950
145,dolisie,-4.1997,12.6739,74.75,94,100,2.35,CG,1707530950
146,anaco,9.4389,-64.4728,76.39,79,55,1.77,VE,1707530950
147,fort st. john,56.2499,-120.8529,19.47,89,100,3.89,CA,1707530950
148,klyuchi,52.2667,79.1667,34.97,86,100,20.56,RU,1707530950
149,manta,-0.95,-80.7333,80.38,83,75,15.01,EC,1707530950
150,atafu village,-8.5421,-172.5159,83.44,79,98,14.05,TK,1707530950
151,iskateley,67.6803,53.1512,-2.97,90,13,11.99,RU,1707530950
152,cajabamba,-7.6167,-78.05,60.85,79,94,1.28,PE,1707530950
153,nebbi,2.4783,31.0889,72.63,60,27,0.74,UG,1707530951
154,la ronge,55.1001,-105.2842,19.65,79,100,13.8,CA,1707530716
155,byron bay,-28.65,153.6167,78.71,80,100,15.05,AU,1707530951
156,fort bragg,35.139,-79.006,55.98,85,100,3.44,US,1707530951
157,mata-utu,-13.2816,-176.1745,83.17,82,100,26.17,WF,1707530951
158,west island,-12.1568,96.8225,84.18,74,40,12.66,CC,1707530951
159,shiguai,40.7058,110.2856,18.0,85,59,6.22,CN,1707530658
160,el matama,16.7095,33.3565,68.58,21,5,10.29,SD,1707530951
161,ta`u,-14.2336,-169.5144,84.02,81,93,18.14,AS,1707530951
162,andujar,38.0392,-4.0508,56.7,83,76,19.53,ES,1707530952
163,nova sintra,14.8667,-24.7167,68.59,73,0,24.85,CV,1707530952
164,margate,51.3813,1.3862,49.89,96,91,7.0,GB,1707530699
165,tanjung pandan,-2.75,107.65,79.3,85,100,9.28,ID,1707530952
166,mitu,1.1983,-70.1733,75.54,95,57,0.92,CO,1707530952
167,dunedin,-45.8742,170.5036,53.8,84,100,10.0,NZ,1707530952
168,karratha,-20.7377,116.8463,99.91,28,0,5.59,AU,1707530952
169,graaff-reinet,-32.2522,24.5308,58.93,74,62,2.1,ZA,1707530952
170,ust-nera,64.5667,143.2,-20.97,99,100,3.18,RU,1707530952
171,bull savanna,17.8868,-77.5902,67.14,80,0,5.21,JM,1707530952
172,sainte-adresse,49.5089,0.0845,52.23,87,100,8.05,FR,1707530952
173,pampas,-12.4,-74.9,50.52,89,100,5.84,PE,1707530953
174,tidjikja,18.5564,-11.4271,71.83,9,0,8.28,MR,1707530953
175,valle de la pascua,9.2155,-66.0073,77.81,78,55,8.5,VE,1707530953
176,tolanaro,-25.0319,46.9987,76.26,88,32,13.71,MG,1707530953
177,syktyvkar,61.6764,50.8099,1.13,92,0,4.47,RU,1707530953
178,motygino,58.1831,94.7592,30.78,97,100,5.01,RU,1707530953
179,arraial do cabo,-22.9661,-42.0278,78.19,84,98,22.1,BR,1707530953
180,acolla,-11.7319,-75.5463,45.41,94,100,4.56,PE,1707530953
181,nouadhibou,20.931,-17.0347,66.18,77,0,14.97,MR,1707530953
182,ola,59.5833,151.2833,-8.86,75,37,6.35,RU,1707530953
183,kalaleh,37.3807,55.4916,53.24,45,71,6.85,IR,1707530953
184,milford haven,51.7128,-5.0341,50.63,100,53,19.3,GB,1707530953
185,olyokminsk,60.3736,120.4264,-8.91,97,96,2.28,RU,1707530954
186,urangan,-25.3,152.9,87.21,62,16,10.0,AU,1707530954
187,rumbek,6.802,29.6912,82.54,32,1,3.56,SS,1707530954
188,suoyarvi,62.0833,32.35,-0.94,100,90,2.77,RU,1707530954
189,jamestown,42.097,-79.2353,56.79,68,0,13.8,US,1707530783
190,masinloc,15.5333,120.05,78.35,45,6,2.28,PH,1707530954
191,bathsheba,13.2167,-59.5167,79.41,83,20,12.66,BB,1707530954
192,weno,7.4515,151.8468,84.15,74,100,6.91,FM,1707530954
193,lawas,13.764,121.0566,81.99,65,45,8.01,PH,1707530954
194,cheremushki,52.8356,91.3944,32.09,85,100,7.11,RU,1707530954
195,kone,-21.0595,164.8658,84.13,66,67,8.81,NC,1707530955
196,les avirons,-21.2418,55.3394,75.29,69,0,10.36,RE,1707530955
197,karasburg,-28.0167,18.75,60.6,54,9,5.66,NA,1707530955
198,calipatria,33.1256,-115.5142,58.91,58,100,1.95,US,1707530955
199,lebu,-37.6167,-73.65,56.34,93,22,7.9,CL,1707530955
200,olonkinbyen,70.9221,-8.7187,26.42,67,49,10.67,SJ,1707530955
201,morant bay,17.8815,-76.4093,78.42,93,8,3.91,JM,1707530955
202,oak grove,45.4168,-122.6401,45.36,92,100,1.01,US,1707530955
203,ain el bya,35.8039,-0.3018,55.69,77,79,30.02,DZ,1707530955
204,esmeraldas,-19.7625,-44.3139,76.06,86,99,8.32,BR,1707530693
205,margaret river,-33.95,115.0667,82.22,36,0,9.24,AU,1707530956
206,shalkar,47.8288,59.6258,23.11,76,100,5.55,KZ,1707530956
207,paragominas,-2.9667,-47.4833,72.93,99,100,2.57,BR,1707530956
208,awjilah,29.1081,21.2869,55.94,42,0,8.46,LY,1707530956
209,egilsstadir,65.2653,-14.3948,15.51,97,100,1.23,IS,1707530956
210,colonia,50.9333,6.95,51.82,89,75,8.05,DE,1707530681
211,taoudenni,22.6783,-3.9836,69.24,9,33,6.76,ML,1707530956
212,kill devil hills,36.0307,-75.676,51.8,82,0,5.75,US,1707530956
213,san pedro pochutla,15.7333,-96.4667,73.11,80,87,3.33,MX,1707530956
214,pidhorodne,48.5753,35.1068,32.63,98,100,9.46,UA,1707530956
215,ingeniero guillermo n. juarez,-23.9,-61.85,86.54,55,92,12.57,AR,1707530956
216,dalandzadgad,43.5708,104.425,16.83,58,0,4.88,MN,1707530957
217,feijo,-8.1642,-70.3536,81.16,78,99,2.77,BR,1707530957
218,basco,20.4487,121.9702,72.75,74,100,18.61,PH,1707530957
219,sumenep,-7.0167,113.8667,84.56,72,48,5.12,ID,1707530840
220,khandyga,62.6667,135.6,-36.02,96,83,1.28,RU,1707530957
221,idfu,24.9803,32.8747,57.58,38,0,8.46,EG,1707530957
222,registro,-24.4875,-47.8436,73.69,99,85,1.41,BR,1707530957
223,angol,-37.8,-72.7167,64.83,55,86,0.74,CL,1707530957
224,labytnangi,66.6572,66.4183,-14.87,94,30,5.77,RU,1707530957
225,port alfred,-33.5906,26.891,65.17,78,11,8.01,ZA,1707530957
226,cidade velha,14.9167,-23.6167,73.87,60,0,11.5,CV,1707530957
227,carnarvon,-24.8667,113.6333,87.17,49,0,6.26,AU,1707530958
228,antalaha,-14.9003,50.2788,78.71,86,95,5.12,MG,1707530958
229,vorgashor,67.5833,63.95,-9.9,90,96,17.07,RU,1707530958
230,kavaratti,10.5669,72.642,82.22,73,46,5.7,IN,1707530958
231,kerema,-7.9631,145.7785,91.65,54,100,4.07,PG,1707530958
232,port-gentil,-0.7193,8.7815,82.24,78,100,4.23,GA,1707530958
233,newman,37.3138,-121.0208,52.02,76,39,5.99,US,1707530958
234,zemio,5.0314,25.1361,73.04,34,4,1.72,CF,1707530958
235,zabol,32.25,67.25,29.17,52,0,8.05,AF,1707530958
236,houlton,46.1262,-67.8403,32.61,80,100,5.75,US,1707530958
237,barth,54.3635,12.7249,36.05,97,100,19.71,DE,1707530958
238,loukhi,66.0764,33.0381,5.31,91,100,4.14,RU,1707530959
239,konarka,19.9,86.1167,59.4,44,1,4.99,IN,1707530959
240,banjar,-8.19,114.9675,85.03,75,10,3.33,ID,1707530959
241,kochenevo,55.0218,82.202,36.79,97,100,31.18,RU,1707530959
242,yekaterinovka,52.0508,44.3451,-3.15,99,43,6.11,RU,1707530959
243,port nelson,23.6333,-74.8333,72.77,65,0,17.02,BS,1707530959
244,lhasa,29.65,91.1,19.06,27,0,2.68,CN,1707530959
245,kupang,-10.1667,123.5833,86.58,79,40,6.91,ID,1707530959
246,cooma,-36.2333,149.1333,70.88,44,3,8.86,AU,1707530959
247,ataq,14.5377,46.8319,61.86,74,18,7.67,YE,1707530959
248,kekri,25.9667,75.15,51.98,37,0,6.31,IN,1707530960
249,pader palwo,2.8006,33.135,75.27,51,43,2.04,UG,1707530960
250,hilo,19.7297,-155.09,76.73,75,40,12.66,US,1707530920
251,gaspe,48.8334,-64.4819,29.48,96,100,4.0,CA,1707530960
252,at-bashi,41.1702,75.8106,-1.71,72,14,0.65,KG,1707530960
253,lingyuan,41.24,119.4011,26.01,42,2,2.68,CN,1707530960
254,richards bay,-28.783,32.0377,76.64,88,100,18.84,ZA,1707530960
255,colares,38.7992,-9.4469,56.89,87,14,21.99,PT,1707530960
256,kayangel,8.0823,134.7173,81.37,80,100,21.27,PW,1707530960
257,den burg,53.0542,4.7972,48.97,93,100,9.22,NL,1707530960
258,muravlenko,63.7898,74.523,8.65,95,100,12.64,RU,1707530961
259,vuktyl,63.8567,57.3094,-10.89,100,100,1.99,RU,1707530961
260,marquette,46.5333,-87.6335,33.82,83,100,11.01,US,1707530961
261,cananeia,-25.0147,-47.9267,77.04,93,35,7.16,BR,1707530961
262,sihanoukville,10.6093,103.5296,82.35,74,40,8.05,KH,1707530961
263,longyearbyen,78.2186,15.6401,22.84,68,75,23.02,SJ,1707530961
264,sao joao da barra,-21.6403,-41.0511,77.56,84,6,13.22,BR,1707530961
265,grand falls-windsor,48.9332,-55.6649,7.47,100,77,3.11,CA,1707530961
266,gallup,35.5281,-108.7426,31.84,74,100,4.61,US,1707530962
267,yerofey pavlovich,53.9667,121.9667,0.27,88,54,2.24,RU,1707530962
268,sitia,35.2,26.0986,54.99,81,0,9.37,GR,1707530962
269,susuman,62.7833,148.1667,-22.61,98,100,1.45,RU,1707530962
270,hadibu,12.65,54.0333,76.3,74,91,11.25,YE,1707530962
271,sao jose da coroa grande,-8.8978,-35.1478,81.81,76,98,10.8,BR,1707530962
272,inirida,3.8653,-67.9239,78.73,80,49,2.06,CO,1707530962
273,callao,-12.0667,-77.15,81.72,78,0,14.97,PE,1707530962
274,st. john's,47.5649,-52.7093,27.79,94,100,13.8,CA,1707530767
275,polewali,-3.4324,119.3435,86.99,67,71,2.95,ID,1707530963
276,cidreira,-30.1811,-50.2056,76.71,90,47,17.83,BR,1707530963
277,novyy urengoy,66.0833,76.6333,4.46,96,98,11.92,RU,1707530826
278,puerto baquerizo moreno,-0.9,-89.6,78.57,86,58,8.61,EC,1707530963
279,sint michiel liber,12.15,-68.9833,80.42,74,20,17.27,CW,1707530963
280,nykobing falster,54.7691,11.8743,37.09,95,100,10.0,DK,1707530963
281,isangel,-19.55,169.2667,80.13,91,100,13.24,VU,1707530963
282,sajir,25.1825,44.5996,60.67,41,65,14.54,SA,1707530963
283,ad-damazin,11.7891,34.3592,76.69,22,1,7.16,SD,1707530963
284,songling,31.1933,120.7176,47.01,60,0,7.52,CN,1707530963
285,harper,4.375,-7.7169,79.43,88,24,6.15,LR,1707530964
286,la passe,45.5549,-0.8967,52.03,98,100,2.98,FR,1707530964
287,saldanha,-33.0117,17.9442,64.49,82,0,17.63,ZA,1707530964
288,roswell,34.0232,-84.3616,56.98,82,0,3.44,US,1707530964
289,laguna,38.421,-121.4238,52.09,69,0,5.75,US,1707530937
290,alice springs,-23.7,133.8833,96.22,31,40,13.8,AU,1707530964
291,sandnessjoen,66.0217,12.6316,14.52,80,86,15.84,NO,1707530964
292,scone,56.4194,-3.4051,39.96,83,100,14.0,GB,1707530964
293,nicoya,10.1483,-85.452,74.97,72,37,10.2,CR,1707530964
294,zawoja,49.644,19.5423,44.28,38,100,4.32,PL,1707530964
295,berlin,52.5244,13.4105,46.42,97,40,5.99,DE,1707530886
296,governador dix sept rosado,-5.4589,-37.5208,80.76,79,100,11.68,BR,1707530965
297,geraldton,-28.7667,114.6,106.21,9,0,19.57,AU,1707530777
298,muroto-misakicho,33.2833,134.15,51.13,55,81,10.4,JP,1707530965
299,marine corps base hawaii - mcbh,21.4453,-157.7513,76.96,83,35,3.0,US,1707530965
300,illizi,26.4833,8.4667,62.35,11,100,6.71,DZ,1707530965
301,thompson,55.7435,-97.8558,3.36,85,100,6.91,CA,1707530965
302,hami,42.8,93.45,28.85,53,9,5.06,CN,1707530965
303,kurnool,15.8309,78.0425,72.14,82,7,12.26,IN,1707530965
304,recife,-8.0539,-34.8811,84.24,74,40,8.05,BR,1707530743
305,mutoko,-17.397,32.2268,60.48,80,97,3.31,ZW,1707530965
306,argo,37.6333,22.7333,51.78,59,94,4.34,GR,1707530965
307,dryden,49.7833,-92.7503,14.29,85,100,9.22,CA,1707530966
308,stornoway,58.2093,-6.3865,39.16,82,100,19.57,GB,1707530966
309,mogocha,53.7333,119.7667,0.25,92,99,1.81,RU,1707530966
310,happy valley-goose bay,53.3168,-60.3315,25.93,97,100,1.81,CA,1707530966
311,kudahuvadhoo,2.6708,72.8944,81.82,70,61,13.6,MV,1707530966
312,hamilton,39.1834,-84.5333,57.43,83,75,10.36,US,1707530682
313,myeik,12.4333,98.6,80.1,75,42,3.49,MM,1707530966
314,fisterra,42.9049,-9.2629,50.02,66,95,23.62,ES,1707530966
315,mangrol,21.1167,70.1167,64.78,33,0,11.72,IN,1707530959
316,birjand,32.8663,59.2211,42.93,29,8,5.53,IR,1707530966
317,gebeit,21.0667,36.3167,59.95,83,0,1.63,SD,1707530966
318,pohang,36.0322,129.365,40.06,48,0,13.42,KR,1707530967
319,barra de santo antonio,-9.4047,-35.5072,79.88,78,98,11.99,BR,1707530967
320,sungjibaegam,41.2428,128.7989,13.64,63,88,7.25,KP,1707530967
321,palangkaraya,-2.2,113.8333,76.3,96,100,0.89,ID,1707530840
322,tarawa,1.419,172.984,81.39,84,100,17.65,KI,1707530967
323,mejit,10.2753,170.8646,79.16,82,100,25.43,MH,1707530967
324,villa elisa,-25.3667,-57.6167,73.45,91,100,2.93,PY,1707530967
325,puerto san jose,13.9256,-90.8244,76.91,75,0,3.47,GT,1707530967
326,lionel town,17.8101,-77.2406,78.69,84,0,6.82,JM,1707530967
327,serowe,-22.3833,26.7167,72.28,71,98,5.68,BW,1707530967
328,san mariano,7.5,126.0,81.05,70,55,6.76,PH,1707530968
329,crane,31.3974,-102.3501,57.51,24,100,7.61,US,1707530968
330,moyale,3.5167,39.0584,74.57,41,2,12.82,KE,1707530968
331,alpine,32.835,-116.7664,48.87,90,75,0.0,US,1707530968
332,vanimo,-2.6741,141.3028,80.62,79,100,3.15,PG,1707530968
333,chachapoyas,-6.2317,-77.869,55.49,97,97,3.74,PE,1707530968
334,nadym,65.5333,72.5167,-0.92,97,100,15.41,RU,1707530968
335,vernon,50.2581,-119.2691,33.6,68,60,1.74,CA,1707530968
336,ulsteinvik,62.3432,5.8487,26.73,66,100,8.01,NO,1707530968
337,al khums,32.6486,14.2619,61.29,36,90,15.99,LY,1707530968
338,yanbu,24.0891,38.0637,66.24,77,20,4.61,SA,1707530968
339,upata,8.0086,-62.3989,78.19,74,98,8.66,VE,1707530969
340,adi keyh,14.8444,39.3772,56.75,45,0,3.87,ER,1707530969
341,dwarka,22.2394,68.9678,68.99,42,2,10.8,IN,1707530969
342,vilyuysk,63.7553,121.6247,-17.45,96,100,4.07,RU,1707530969
343,cloverdale,38.8055,-123.0172,52.84,96,68,4.54,US,1707530969
344,guiren,33.6697,118.1889,41.99,70,0,7.31,CN,1707530969
345,caibarien,22.5206,-79.4669,65.52,68,4,16.06,CU,1707530969
346,westport,41.1415,-73.3579,44.19,86,0,3.44,US,1707530969
347,lata,40.1629,-8.3327,53.82,94,69,6.53,PT,1707530969
348,antofagasta,-23.65,-70.4,69.1,88,70,11.1,CL,1707530910
349,hasaki,35.7333,140.8333,54.28,57,91,5.41,JP,1707530970
350,gereida,11.2811,25.1414,69.71,19,8,10.49,SD,1707530970
351,coos bay,43.3665,-124.2179,47.34,93,100,6.91,US,1707530970
352,port saint john's,-31.6229,29.5448,68.04,90,100,5.61,ZA,1707530970
353,ancud,-41.8697,-73.8203,55.35,86,0,2.82,CL,1707530970
354,darbhanga,26.1667,85.9,52.93,62,0,5.26,IN,1707530970
355,arteche,12.2645,125.4048,81.77,66,20,12.17,PH,1707530970
356,salekhard,66.53,66.6019,-8.18,86,24,18.52,RU,1707530970
357,kulhudhuffushi,6.6221,73.07,82.13,69,86,16.33,MV,1707530970
358,shingu,33.7333,135.9833,53.55,46,42,7.67,JP,1707530970
359,kununurra,-15.7667,128.7333,89.58,62,40,5.75,AU,1707530971
360,north bend,43.4065,-124.2243,47.26,93,100,6.91,US,1707530971
361,ivins,37.1686,-113.6794,41.13,82,100,2.84,US,1707530971
362,tionk essil,12.7856,-16.5217,73.8,62,0,7.47,SN,1707530971
363,griffith,41.5284,-87.4237,50.25,82,0,5.75,US,1707530971
364,vila velha,-20.3297,-40.2925,75.94,92,0,3.44,BR,1707530971
365,kabalo,-6.05,26.9167,69.22,96,29,1.28,CD,1707530971
366,sept-iles,50.2001,-66.3821,26.06,95,100,4.61,CA,1707530762
367,pasni,25.2631,63.471,68.23,71,0,7.45,PK,1707530972
368,dalby,-27.1833,151.2667,84.72,48,100,13.22,AU,1707530972
369,timimoun,29.2639,0.231,67.44,11,71,20.56,DZ,1707530972
370,las lajitas,-24.6833,-64.25,72.95,95,97,5.21,AR,1707530972
371,bubaque,11.2833,-15.8333,78.73,79,2,8.68,GW,1707530972
372,asikkala,61.2167,25.5,0.52,96,59,4.03,FI,1707530972
373,nanao,37.05,136.9667,48.18,72,94,18.39,JP,1707530972
374,kyren,51.6828,102.1408,19.94,75,100,5.01,RU,1707530972
375,tahoua,14.8888,5.2692,67.03,13,5,8.46,NE,1707530972
376,baihar,22.1,80.55,57.67,29,0,2.57,IN,1707530973
377,enewetak,11.3474,162.3373,79.75,80,100,22.44,MH,1707530973
378,acarau,-2.8856,-40.12,82.29,79,100,17.13,BR,1707530973
379,trinidad,-14.8333,-64.9,81.84,69,88,3.62,BO,1707530973
380,siliana,36.085,9.3708,58.17,42,100,26.57,TN,1707530973
381,pudozh,61.8099,36.5345,-10.05,100,99,3.0,RU,1707530973
382,tsiombe,-25.3,45.4833,74.16,85,0,5.35,MG,1707530973
383,zadar,44.1197,15.2422,56.01,82,40,11.5,HR,1707530957
384,fonte boa,-2.4959,-66.2662,76.51,96,100,2.06,BR,1707530973
385,mammoth lakes,37.6485,-118.9721,25.52,69,100,11.5,US,1707530974
386,bure,10.7,37.0667,61.38,43,40,4.38,ET,1707530974
387,batang,-6.4846,110.7083,83.07,76,93,7.29,ID,1707530896
388,kolomna,55.0794,38.7783,-7.94,100,71,4.0,RU,1707530974
389,kindu,-2.95,25.95,70.36,99,100,3.22,CD,1707530974
390,keflavik,64.0049,-22.5624,23.43,74,0,10.36,IS,1707530974
391,ad dilam,23.9915,47.1627,59.41,40,68,6.6,SA,1707530974
392,labrador city,52.9463,-66.9114,24.19,99,100,5.21,CA,1707530974
393,kerikeri,-35.2268,173.9474,77.4,66,100,7.85,NZ,1707530974
394,enshi,30.3,109.4833,43.57,81,75,0.87,CN,1707530974
395,tasqala,51.1167,50.3167,3.56,96,15,5.39,KZ,1707530975
396,repatriacion,-25.5333,-55.95,72.12,98,100,1.95,PY,1707530975
397,vlasim,49.7063,14.8988,46.27,85,100,3.87,CZ,1707530975
398,porto novo,6.4965,2.6036,76.5,85,48,5.44,BJ,1707530975
399,shanhecun,44.7,127.2,12.24,93,100,7.18,CN,1707530975
400,corte,42.25,9.25,59.4,85,100,3.42,FR,1707530975
401,el nido,11.1858,119.3956,80.28,74,7,8.61,PH,1707530975
402,namdrik,5.5994,168.1028,81.43,80,100,19.53,MH,1707530975
403,kailua-kona,19.6406,-155.9956,78.76,87,40,9.22,US,1707530920
404,vila franca do campo,37.7167,-25.4333,59.41,85,100,3.33,PT,1707530975
405,harstad,68.799,16.5293,28.15,91,94,21.0,NO,1707530976
406,nyrob,60.733,56.7202,-9.2,100,60,3.38,RU,1707530976
407,ouani,-12.1322,44.4258,81.86,81,46,7.11,KM,1707530976
408,melfort,52.8667,-104.6177,22.08,92,97,13.2,CA,1707530976
409,torquay,50.4638,-3.5143,46.36,93,56,5.99,GB,1707530976
410,togur,58.3631,82.8265,26.15,93,100,8.01,RU,1707530976
411,ozalp,38.6548,43.993,15.04,96,68,3.31,TR,1707530976
412,acapulco de juarez,16.8634,-99.8901,82.22,65,20,5.75,MX,1707530881
413,nyurba,63.2842,118.3319,-18.96,97,100,1.43,RU,1707530976
414,fale old settlement,-9.3852,-171.2468,83.5,79,100,15.03,TK,1707530976
415,pisco,-13.7,-76.2167,75.25,88,100,14.97,PE,1707530976
416,yuzhno-kurilsk,44.0306,145.8556,24.37,66,100,1.86,RU,1707530977
417,santa terezinha,-29.9002,-50.0904,76.71,95,97,5.17,BR,1707530977
418,miandrivazo,-19.5167,45.4667,77.04,91,100,2.8,MG,1707530977
419,padangsidempuan,1.3667,99.2667,77.13,89,97,3.62,ID,1707530977
420,brisas de zicatela,15.8369,-97.0419,77.52,73,75,8.05,MX,1707530977
421,qui nhon,13.7667,109.2333,73.62,86,89,18.3,VN,1707530977
422,dubrovnik,42.6481,18.0922,56.84,88,75,17.27,HR,1707530897
423,el bayadh,33.6832,1.0193,48.27,77,98,27.6,DZ,1707530977
424,formosa,-26.1775,-58.1781,76.35,94,98,4.41,AR,1707530977
425,san jeronimo de juarez,17.1333,-100.4667,75.58,75,21,3.2,MX,1707530977
426,mragowo,53.8644,21.3051,32.0,93,100,12.75,PL,1707530977
427,bhilwara,25.35,74.6333,50.67,36,0,5.37,IN,1707530959
428,as sulaymaniyah,35.5611,45.4375,41.43,100,75,4.61,IQ,1707530977
429,sumbawa besar,-8.5,117.4333,85.62,67,16,4.97,ID,1707530978
430,viedma,-40.8135,-62.9967,68.56,82,100,8.79,AR,1707530978
431,la cruz,23.9167,-106.9,69.48,61,100,12.53,MX,1707530978
432,myanaung,18.2833,95.3167,74.19,32,2,8.93,MM,1707530978
433,sinabang,2.4803,96.3801,81.21,84,100,3.15,ID,1707530978
434,aksu,41.1231,80.2644,29.97,64,0,3.51,CN,1707530978
435,nuuk,64.1835,-51.7216,11.01,67,75,9.22,GL,1707530978
436,kanel,15.4916,-13.1763,80.91,10,0,8.68,SN,1707530978
437,carutapera,-1.195,-46.02,77.0,94,61,6.38,BR,1707530978
438,ulladulla,-35.35,150.4667,70.81,62,80,8.3,AU,1707530978
439,bonthe,7.5264,-12.505,79.79,86,100,4.25,SL,1707530979
440,al muwayh,22.4333,41.7583,60.28,42,15,7.67,SA,1707530979
441,howard springs,-12.497,131.047,90.99,80,6,5.39,AU,1707530979
442,zambezi,-13.5432,23.1047,66.02,86,89,1.7,ZM,1707530979
443,aoulef,26.9667,1.0833,65.03,12,95,12.57,DZ,1707530979
444,ati,13.2154,18.3353,66.99,13,0,8.63,TD,1707530979
445,kuala terengganu,5.3302,103.1408,79.68,81,90,10.04,MY,1707530979
446,saint-francois,46.4154,3.9054,47.64,88,0,5.75,FR,1707530979
447,las heras,-46.5419,-68.9359,66.85,37,33,10.67,AR,1707530979
448,yarmouth,41.7057,-70.2286,41.14,90,75,5.01,US,1707530979
449,lepe,37.2548,-7.2043,57.18,83,2,15.57,ES,1707530980
450,kuragino,53.8975,92.6725,22.75,86,100,7.27,RU,1707530980
451,turochak,52.2576,87.1224,31.01,91,100,3.78,RU,1707530980
452,nabire,-3.3667,135.4833,82.33,77,50,3.76,ID,1707530980
453,tommot,58.9564,126.2925,-12.71,97,95,1.23,RU,1707530980
454,kelso,46.1468,-122.9084,44.83,91,100,4.61,US,1707530980
455,nemuro,43.3236,145.575,25.7,77,100,3.67,JP,1707530980
456,nizhneangarsk,55.7833,109.55,12.0,95,100,1.01,RU,1707530980
457,axim,4.8699,-2.2405,77.05,90,5,1.01,GH,1707530980
458,yeppoon,-23.1333,150.7333,89.38,46,15,13.13,AU,1707530981
459,kolonia town,6.964,158.206,86.0,70,100,8.05,FM,1707530981
460,gulf shores,30.246,-87.7008,64.45,83,100,6.91,US,1707530981
461,slavyanka,42.8633,131.3847,24.8,65,91,3.31,RU,1707530981
462,zhangjiakou,40.81,114.8794,18.36,85,10,4.9,CN,1707530981
463,chyorny yar,48.0624,46.1091,27.73,97,100,10.18,RU,1707530981
464,karoi,-16.8099,29.6925,63.32,81,91,0.78,ZW,1707530981
465,zouerate,22.7187,-12.4521,66.72,11,53,7.61,MR,1707530981
466,smithers,54.7804,-127.1743,21.52,93,100,2.3,CA,1707530728
467,greater sudbury,46.49,-80.99,37.06,95,100,8.99,CA,1707530722
468,malente,54.1712,10.5552,37.15,98,100,9.78,DE,1707530981
469,severo-yeniseyskiy,60.3725,93.0408,17.58,96,100,5.99,RU,1707530981
470,selma,36.5708,-119.6121,52.63,74,75,5.75,US,1707530982
471,east london,-33.0153,27.9116,68.31,61,35,19.55,ZA,1707530982
472,saint-joseph,-21.3667,55.6167,77.38,83,100,4.43,RE,1707530982
473,poronaysk,49.2167,143.1167,3.43,85,21,4.83,RU,1707530982
474,boa vista,2.8197,-60.6733,84.18,61,40,12.66,BR,1707530982
475,kwang binh,17.4833,106.6,59.27,85,100,11.36,VN,1707530982
476,chokwe,-24.5333,32.9833,74.62,85,44,1.52,MZ,1707530982
477,shenjiamen,29.9576,122.298,46.0,59,0,4.41,CN,1707530982
478,mutuali,-14.8706,37.0044,67.23,92,100,1.97,MZ,1707530982
479,novouzensk,50.4592,48.1431,15.35,87,82,3.76,RU,1707530982
480,fallon,39.4735,-118.7774,37.27,65,75,5.75,US,1707530982
481,yabassi,4.457,9.9682,75.52,92,9,1.07,CM,1707530983
482,la'ie,21.6477,-157.9253,76.96,75,36,5.99,US,1707530983
483,broome,42.2506,-75.833,51.19,69,0,6.91,US,1707530918
484,conception bay south,47.4999,-52.9981,27.55,94,38,11.01,CA,1707530906
485,lobujya,27.95,86.8167,2.93,17,0,2.84,NP,1707530983
486,amga,60.8953,131.9608,-26.32,98,99,0.83,RU,1707530983
487,george town,5.4112,100.3354,84.13,71,20,4.61,MY,1707530782
488,ma'an,26.9775,110.7211,46.2,74,8,3.42,CN,1707530983
489,al kharijah,25.4514,30.5464,54.36,37,0,7.4,EG,1707530983
490,matonga,-2.3833,34.0833,64.53,92,29,3.27,TZ,1707530983
491,meadow lake,34.8014,-106.5436,40.46,37,27,3.18,US,1707530984
492,san patricio,28.017,-97.5169,71.83,84,100,7.78,US,1707530984
493,dhuusamarreeb,5.535,46.3861,72.14,84,25,16.08,SO,1707530984
494,sambava,-14.2667,50.1667,74.34,99,100,1.66,MG,1707530984
495,imbituba,-28.24,-48.6703,77.86,98,98,3.24,BR,1707530787
496,makar'yev,57.8797,43.8069,-14.46,100,97,2.89,RU,1707530984
497,gijang,35.2442,129.2139,42.39,34,0,6.71,KR,1707530984
498,follonica,42.9263,10.7616,60.51,90,100,15.97,IT,1707530910
499,conceicao da barra,-18.5933,-39.7322,72.61,93,14,4.38,BR,1707530984
500,pilani,28.3684,75.6041,48.81,38,0,4.0,IN,1707530984
501,sittwe,20.15,92.9,64.72,42,0,5.55,MM,1707530984
502,la sarre,48.8002,-79.1996,33.76,99,100,8.81,CA,1707530984
503,kluang,2.0251,103.3328,80.85,74,96,6.13,MY,1707530985
504,rovaniemi,66.5,25.7167,-4.59,84,100,3.44,FI,1707530985
505,rio grande,-32.035,-52.0986,78.94,91,62,16.24,BR,1707530985
506,choibalsan,48.0667,114.5,4.1,81,99,11.05,MN,1707530985
507,vadso,70.0744,29.7487,8.76,92,100,8.05,NO,1707530985
508,alpena,45.0617,-83.4327,43.12,78,100,8.05,US,1707530888
509,holualoa,19.6228,-155.9522,75.04,88,40,9.22,US,1707530985
510,thinadhoo,0.5333,72.9333,83.03,72,100,14.45,MV,1707530985
511,tromso,69.6496,18.957,23.02,68,20,24.16,NO,1707530740
512,minas de marcona,-15.2119,-75.1103,67.69,82,49,10.36,PE,1707530985
513,belmonte,-15.8631,-38.8828,74.12,91,100,5.26,BR,1707530985
514,robertsport,6.7533,-11.3686,81.19,86,91,7.38,LR,1707530985
515,aur,8.1499,171.1687,80.2,83,100,25.34,MH,1707530986
516,tchibanga,-2.85,11.0333,73.72,96,100,2.44,GA,1707530986
517,zaragoza,41.6561,-0.8773,54.05,64,20,18.41,ES,1707530986
518,keren,15.7778,38.4581,65.44,37,0,3.67,ER,1707530986
519,kangding,30.0513,101.9603,35.49,35,0,5.93,CN,1707530986
520,tianchang,37.9981,114.0156,36.9,53,100,4.81,CN,1707530986
521,lompoc,34.6391,-120.4579,54.79,75,0,14.97,US,1707530986
522,yulinshi,38.2906,109.7494,28.44,62,97,17.29,CN,1707530986
523,klaksvik,62.2266,-6.589,36.52,69,100,25.28,FO,1707530986
524,palmas,-10.2128,-48.3603,76.87,100,75,0.0,BR,1707530986
525,ampanihy,-24.7,44.75,75.74,76,1,4.94,MG,1707530987
526,hastings,50.8552,0.5729,50.13,94,100,15.61,GB,1707530987
527,tateyama,34.9833,139.8667,48.76,70,100,5.08,JP,1707530987
528,pamanukan,-6.2842,107.8106,82.76,80,52,5.12,ID,1707530987
529,villa gesell,-37.2639,-56.973,74.05,97,100,14.23,AR,1707530987
530,jalai nur,49.45,117.7,-1.64,95,100,4.43,CN,1707530987
531,maputo,-25.9653,32.5892,73.83,94,100,8.72,MZ,1707530821
532,flying fish cove,-10.4217,105.6791,83.88,78,75,6.91,CX,1707530987
533,ponta delgada,37.7333,-25.6667,59.72,82,40,2.3,PT,1707530988
534,victorica,-36.2151,-65.4359,69.87,87,100,8.86,AR,1707530988
535,ouddorp,51.8117,3.9347,52.02,86,96,17.05,NL,1707530988
536,bougouni,11.417,-7.479,76.73,13,4,4.47,ML,1707530988
537,biella,45.5871,8.0859,45.7,97,100,4.07,IT,1707530988
538,khawr fakkan,25.3313,56.342,64.45,73,12,4.81,AE,1707530988
539,namibe,-15.1961,12.1522,75.76,80,100,4.63,AO,1707530988
540,okha,53.5739,142.9478,-2.09,89,44,6.17,RU,1707530988
541,arish,31.1316,33.7984,61.65,64,0,4.45,EG,1707530989
542,n'zeto,-7.2312,12.8666,82.58,82,100,10.02,AO,1707530989
543,barcelos,41.5388,-8.6151,53.74,84,14,7.92,PT,1707530989
544,leiston,52.2061,1.5776,49.32,98,93,13.02,GB,1707530989
545,caconda,-13.7333,15.0667,61.32,94,96,1.52,AO,1707530989
546,galvez,-32.0293,-61.221,74.44,86,96,4.47,AR,1707530989
547,oodweyne,9.4092,45.064,65.71,80,2,5.61,SO,1707530989
548,tangalle,6.024,80.7911,73.56,70,7,12.86,LK,1707530887
549,saint-louis,16.3333,-15.0,76.89,10,0,9.17,SN,1707530989
550,christchurch,-43.5333,172.6333,79.92,29,100,13.8,NZ,1707530706
551,kosh-agach,50.0,88.6667,1.31,82,95,1.01,RU,1707530990
552,mulki,13.1,74.8,76.28,100,75,6.91,IN,1707530958
553,baykal'sk,51.5058,104.1469,24.58,75,55,5.79,RU,1707530990
554,sola,-13.8833,167.55,82.26,82,100,27.51,VU,1707530990
555,susz,53.7174,19.3365,32.72,91,100,1.99,PL,1707530990
556,dondo,-19.6094,34.7431,76.51,95,34,4.72,MZ,1707530990
