City_ID,City,Lat,Lng,Max Temp,Humidity,Cloudiness,Wind Speed,Country,Date
0,tazovsky,67.4667,78.7,-4.92,100,94,6.4,RU,1707274887
1,edinburgh of the seven seas,-37.0676,-12.3116,62.19,62,96,2.75,SH,1707274782
2,adamstown,-25.066,-130.1015,77.02,85,94,11.54,PN,1707274783
3,maceio,-9.6658,-35.7353,78.24,100,40,1.14,BR,1707274813
4,grytviken,-54.2811,-36.5092,47.95,58,19,5.3,GS,1707274781
5,port saint john's,-31.6229,29.5448,72.73,83,78,3.91,ZA,1707274845
6,port-aux-francais,-49.35,70.2167,44.17,99,100,17.63,TF,1707274783
7,helena valley west central,46.6629,-112.0604,37.06,94,100,0.0,US,1707275020
8,west island,-12.1568,96.8225,85.98,70,40,10.36,CC,1707274850
9,mount pearl,47.5166,-52.7813,31.32,91,100,27.63,CA,1707274857
10,petropavlovsk-kamchatsky,53.0452,158.6483,19.99,76,0,4.0,RU,1707274781
11,iqaluit,63.7506,-68.5145,-7.87,54,20,4.61,CA,1707274790
12,puerto natales,-51.7236,-72.4875,52.03,78,80,6.8,CL,1707274782
13,guangyuan,32.442,105.823,44.64,51,99,3.78,CN,1707275020
14,eura,61.1333,22.1333,10.18,98,87,4.7,FI,1707275020
15,thompson,55.7435,-97.8558,-0.24,71,100,8.05,CA,1707274788
16,ancud,-41.8697,-73.8203,55.44,71,98,13.96,CL,1707274793
17,tingo maria,-9.2895,-76.0088,70.3,97,29,2.3,PE,1707275020
18,arkalyk,50.2486,66.9114,31.84,98,98,23.15,KZ,1707275021
19,ust-tsilma,65.441,52.1498,-18.38,100,85,1.01,RU,1707275021
20,namibe,-15.1961,12.1522,76.73,82,100,5.28,AO,1707275021
21,blackmans bay,-43.0167,147.3167,68.52,43,35,8.08,AU,1707274784
22,georgetown,5.4112,100.3354,89.53,70,20,8.05,MY,1707274691
23,labuan,5.2767,115.2417,82.76,83,40,1.14,MY,1707274595
24,albany,42.6001,-73.9662,29.8,71,11,1.01,US,1707274629
25,college,64.8569,-147.8028,3.45,80,75,0.0,US,1707274789
26,ust-nera,64.5667,143.2,-19.46,93,65,1.52,RU,1707274785
27,muang xay,20.7,101.9833,78.49,27,0,2.55,LA,1707275021
28,evreux,49.0241,1.1508,54.41,84,100,18.41,FR,1707275021
29,levuka,50.1834,-105.4011,29.91,84,100,9.78,CA,1707275021
30,baker city,44.7749,-117.8344,39.18,82,100,4.85,US,1707274927
31,vorgashor,67.5833,63.95,-15.83,98,67,5.46,RU,1707274790
32,troitsko-pechorsk,62.7084,56.1964,0.7,98,100,3.0,RU,1707275021
33,saipan,15.1355,145.701,84.9,54,75,12.66,MP,1707274786
34,palora,-1.7,-77.9333,66.42,93,70,2.68,EC,1707275021
35,lompoc,34.6391,-120.4579,53.78,77,20,10.36,US,1707274703
36,kayangel,8.0823,134.7173,81.63,72,94,20.87,PW,1707274787
37,capayan,-28.761,-66.0502,87.8,45,11,11.83,AR,1707275022
38,mossel bay,-34.1831,22.146,69.73,81,60,4.56,ZA,1707274950
39,avarua,-21.2078,-159.775,84.25,74,40,16.11,CK,1707274794
40,auki,-8.7676,160.7034,83.34,80,97,10.96,SB,1707275022
41,tiksi,71.6872,128.8694,-18.11,99,97,6.38,RU,1707274797
42,arraial do cabo,-22.9661,-42.0278,77.58,88,100,2.64,BR,1707274787
43,mitu,1.1983,-70.1733,73.87,98,100,0.49,CO,1707274804
44,ribeira grande,38.5167,-28.7,63.77,91,87,18.99,PT,1707274788
45,margaret river,-33.95,115.0667,80.38,36,0,7.85,AU,1707274780
46,hermanus,-34.4187,19.2345,66.79,84,2,12.39,ZA,1707274781
47,wotho,10.1657,166.0102,80.74,81,98,14.61,MH,1707275022
48,myeik,12.4333,98.6,81.5,54,4,2.35,MM,1707275022
49,inhambane,-23.865,35.3833,70.83,85,0,4.79,MZ,1707275022
50,qaqortoq,60.7167,-46.0333,7.07,65,2,11.03,GL,1707274847
51,labrador city,52.9463,-66.9114,6.71,71,75,6.91,CA,1707274817
52,waitangi,-43.9535,-176.5597,66.81,88,100,5.99,NZ,1707274782
53,carbonear,47.7332,-53.2148,33.12,91,100,26.6,CA,1707275023
54,port alfred,-33.5906,26.891,70.18,90,100,8.01,ZA,1707274822
55,ambatofinandrahana,-20.55,46.8,61.43,97,67,1.48,MG,1707275023
56,bethel,41.3712,-73.414,31.87,71,0,3.44,US,1707274584
57,arish,31.1316,33.7984,57.2,76,0,3.04,EG,1707275023
58,jamestown,42.097,-79.2353,29.84,85,0,6.91,US,1707274796
59,tolanaro,-25.0319,46.9987,73.47,94,40,21.85,MG,1707274791
60,port lincoln,-34.7333,135.8667,68.31,61,23,10.38,AU,1707274823
61,yellowknife,62.456,-114.3525,0.55,85,100,12.66,CA,1707274781
62,arkhangel'sk,64.5401,40.5433,-12.87,75,20,2.24,RU,1707274794
63,meiganga,6.5167,14.3,66.27,27,93,6.4,CM,1707275023
64,hawaiian paradise park,19.5933,-154.9731,71.78,84,68,1.01,US,1707274784
65,broome,42.2506,-75.833,31.01,82,34,3.4,US,1707274795
66,mount isa,-20.7333,139.5,92.97,46,99,13.8,AU,1707274697
67,dunedin,-45.8742,170.5036,63.81,68,94,1.99,NZ,1707274787
68,walvis bay,-22.9575,14.5053,67.15,88,77,0.0,NA,1707275024
69,bilibino,68.0546,166.4372,-28.66,100,100,1.72,RU,1707274784
70,alaghsas,17.0187,8.0168,59.23,25,38,11.52,NE,1707275024
71,sola,-13.8833,167.55,83.48,72,100,17.81,VU,1707275024
72,macae,-22.3708,-41.7869,76.75,94,0,2.3,BR,1707275024
73,longyearbyen,78.2186,15.6401,13.84,73,75,12.66,SJ,1707274789
74,whitehorse,60.7161,-135.0538,5.09,81,75,5.75,CA,1707274784
75,daru,-9.0763,143.2092,88.12,63,100,3.96,PG,1707274795
76,stanley,54.868,-1.6985,33.78,85,0,3.44,GB,1707274782
77,fortuna,40.5982,-124.1573,49.66,93,75,0.0,US,1707274823
78,turan,16.0678,108.2208,78.78,83,75,2.3,VN,1707275024
79,chibougamau,49.9168,-74.3659,24.42,74,75,6.91,CA,1707274959
80,centereach,40.8584,-73.0995,35.1,70,0,1.99,US,1707274801
81,och'amch'ire,42.7123,41.4686,46.49,86,100,5.39,GE,1707275024
82,guerrero negro,27.9769,-114.0611,60.04,75,24,11.32,MX,1707274785
83,muisne,0.6,-80.0333,78.94,89,77,1.32,EC,1707275025
84,goscicino,54.6046,18.1549,41.04,83,100,15.99,PL,1707275025
85,louiseville,46.2559,-72.9415,24.71,68,88,4.61,CA,1707274762
86,papatowai,-46.5619,169.4708,62.8,53,16,9.78,NZ,1707274794
87,panacan,9.2463,118.4082,83.35,73,21,13.11,PH,1707275025
88,kaliua,-5.0606,31.7936,63.9,98,92,3.47,TZ,1707275025
89,dudinka,69.4058,86.1778,-3.32,87,100,8.01,RU,1707274792
90,kamloops,50.6665,-120.3192,38.57,86,75,3.44,CA,1707275025
91,nikolayevsk-on-amure,53.1406,140.73,5.04,77,80,4.74,RU,1707274887
92,kapa'a,22.0752,-159.319,75.09,60,20,8.99,US,1707274793
93,brisas de zicatela,15.8369,-97.0419,79.32,69,40,3.44,MX,1707275025
94,egilsstadir,65.2653,-14.3948,19.31,93,75,3.44,IS,1707275025
95,susuman,62.7833,148.1667,-21.01,100,99,1.01,RU,1707274834
96,gombong,-7.6072,109.5142,83.32,70,91,6.98,ID,1707275026
97,youkounkoun,12.5333,-13.1333,76.28,16,0,2.62,GN,1707275026
98,tangalle,6.024,80.7911,77.16,70,28,11.3,LK,1707275026
99,sittwe,20.15,92.9,76.05,57,0,9.4,MM,1707275026
100,udachny,66.4167,112.4,-20.56,74,98,4.23,RU,1707274789
101,hamilton,39.1834,-84.5333,39.76,76,0,8.05,US,1707274618
102,invercargill,-46.4,168.35,63.01,63,16,8.99,NZ,1707274781
103,esmeraldas,-19.7625,-44.3139,70.74,91,94,3.31,BR,1707274795
104,carutapera,-1.195,-46.02,79.21,87,16,7.02,BR,1707275026
105,lesnoy,57.6198,63.0784,25.75,95,99,12.75,RU,1707275026
106,rabo de peixe,37.8,-25.5833,63.91,88,75,19.57,PT,1707275027
107,sanctuary point,-35.1114,150.629,72.75,67,92,12.46,AU,1707275027
108,howrah,22.5892,88.3103,66.2,88,40,9.22,IN,1707275027
109,colonia,50.9333,6.95,52.45,83,100,14.97,DE,1707274786
110,cabo san lucas,22.8909,-109.9124,70.18,82,49,15.95,MX,1707274827
111,mormugao,15.4,73.8,74.46,88,0,2.3,IN,1707275027
112,iskateley,67.6803,53.1512,-12.98,97,100,4.0,RU,1707274856
113,lamu,-2.2717,40.902,79.7,85,19,9.89,KE,1707275027
114,ha tinh,18.3333,105.9,76.86,78,95,1.92,VN,1707275027
115,banjar,-8.19,114.9675,88.21,65,34,4.79,ID,1707275027
116,verdal,63.7933,11.4817,10.44,94,10,4.36,NO,1707275027
117,bardai,11.65,7.2333,62.47,27,69,14.05,NG,1707275028
118,punta arenas,-53.15,-70.9167,53.71,71,75,6.91,CL,1707274782
119,katsuura,35.1333,140.3,47.55,53,100,9.86,JP,1707274915
120,puerto ayora,-0.7393,-90.3518,77.14,88,67,8.23,EC,1707274779
121,olonkinbyen,70.9221,-8.7187,25.14,91,91,19.22,SJ,1707274785
122,port douglas,-16.4833,145.4667,85.84,71,83,6.15,AU,1707275028
123,sharlyk,52.9167,54.75,17.13,99,92,1.74,RU,1707274835
124,quelimane,-17.8786,36.8883,76.95,94,40,0.0,MZ,1707275028
125,bemidji,47.4736,-94.8803,33.06,99,100,5.75,US,1707275028
126,balabac,7.9868,117.0645,82.54,73,11,10.6,PH,1707275028
127,anadyr,64.75,177.4833,-8.9,83,75,17.9,RU,1707274791
128,manta,-0.95,-80.7333,80.38,83,75,15.01,EC,1707274794
129,selfoss,63.9331,-20.9971,16.29,89,34,8.72,IS,1707274855
130,floro,61.5996,5.0328,28.36,74,75,11.5,NO,1707275029
131,kousa,25.9141,32.7636,53.62,47,0,4.5,EG,1707275029
132,isafjordur,66.0755,-23.124,26.17,92,100,12.97,IS,1707274789
133,new norfolk,-42.7826,147.0587,69.71,29,39,5.73,AU,1707274785
134,muroran,42.3172,140.9881,32.25,64,56,9.57,JP,1707275029
135,brookings,44.3114,-96.7984,41.18,98,0,6.91,US,1707274859
136,sechura,-5.5569,-80.8222,80.76,64,65,14.45,PE,1707275029
137,ponta delgada,37.7333,-25.6667,65.12,88,75,19.57,PT,1707274839
138,aberystwyth,52.4155,-4.0829,41.9,83,85,4.07,GB,1707275029
139,jiwani,25.05,61.7417,68.79,49,90,9.46,PK,1707275029
140,waingapu,-9.6567,120.2641,87.46,63,26,4.81,ID,1707274791
141,borkum,53.5809,6.6915,42.94,78,100,23.15,DE,1707274918
142,makokou,0.5738,12.8642,71.96,72,21,2.39,GA,1707275029
143,galesong,-5.3166,119.3661,75.22,78,100,5.08,ID,1707275030
144,san ignacio de velasco,-16.3667,-60.95,77.11,67,81,3.44,BO,1707275030
145,komsomol'skiy,43.9783,46.6985,34.54,98,100,9.62,RU,1707275030
146,porto novo,6.4965,2.6036,74.44,66,34,3.62,BJ,1707274832
147,ushuaia,-54.8,-68.3,58.66,44,0,8.05,AR,1707274786
148,rongelap,11.1635,166.8941,80.17,81,95,14.18,MH,1707275030
149,bredasdorp,-34.5322,20.0403,66.25,69,0,10.71,ZA,1707274788
150,ilulissat,69.2167,-51.1,20.84,71,100,9.35,GL,1707274790
151,nuuk,64.1835,-51.7216,20.01,45,75,37.98,GL,1707274903
152,rivera,-30.9053,-55.5508,75.06,77,4,6.69,UY,1707274937
153,carnarvon,-24.8667,113.6333,92.88,40,4,14.29,AU,1707274791
154,vadso,70.0744,29.7487,12.36,85,100,18.41,NO,1707274845
155,praia da vitoria,38.7333,-27.0667,62.85,88,20,13.53,PT,1707274858
156,birao,10.2849,22.7882,67.78,19,6,9.86,CF,1707274799
157,sur,22.5667,59.5289,71.02,61,100,7.99,OM,1707275031
158,utrik,11.2278,169.8474,80.13,80,87,14.81,MH,1707274837
159,olyokminsk,60.3736,120.4264,11.37,92,100,4.61,RU,1707275031
160,ulladulla,-35.35,150.4667,68.45,65,82,11.39,AU,1707274627
161,kurchatov,51.6601,35.6521,25.21,97,100,8.08,RU,1707274845
162,francistown,-21.17,27.5079,74.91,45,6,4.88,BW,1707275031
163,san patricio,28.017,-97.5169,59.85,69,66,5.84,US,1707274789
164,cartagena del chaira,1.3349,-74.8429,72.79,98,57,2.15,CO,1707275031
165,kenai,60.5544,-151.2583,25.14,94,20,9.22,US,1707274913
166,beruniy,41.6911,60.7525,40.96,60,0,16.11,UZ,1707275031
167,puerto baquerizo moreno,-0.9,-89.6,77.9,86,31,11.27,EC,1707274858
168,magistral'nyy,56.1725,107.4458,6.37,96,79,4.72,RU,1707275031
169,merkezefendi,37.7918,29.0667,48.31,48,6,5.21,TR,1707275032
170,veydelevka,50.1521,38.4492,29.34,89,94,5.57,RU,1707275032
171,ceelbuur,4.685,46.6176,76.05,81,96,10.16,SO,1707275032
172,fisterra,42.9049,-9.2629,59.76,93,100,22.28,ES,1707275032
173,bilky,48.315,23.1325,44.53,75,57,5.95,UA,1707275032
174,palikir - national government center,6.9248,158.1611,80.89,79,100,16.84,FM,1707275032
175,aykhal,66.0,111.5,-20.69,100,100,4.74,RU,1707274797
176,nar'yan-mar,67.6713,53.087,-12.89,97,99,4.0,RU,1707274798
177,margate,51.3813,1.3862,43.3,94,100,5.01,GB,1707275033
178,kaffrine,14.1059,-15.5508,77.49,14,0,5.3,SN,1707275033
179,kismayo,-0.3582,42.5454,80.33,87,84,13.96,SO,1707275033
180,lihue,21.9789,-159.3672,74.35,77,36,15.68,US,1707274788
181,cascais,38.6979,-9.4215,61.5,97,100,10.0,PT,1707275033
182,kholmsk,47.0511,142.0569,20.84,71,45,4.52,RU,1707275033
183,luanda,-8.8368,13.2343,77.0,94,75,6.91,AO,1707274798
184,menaka,15.9182,2.4022,63.39,15,45,12.03,ML,1707275033
185,vernon,50.2581,-119.2691,35.76,100,100,1.14,CA,1707274614
186,port mathurin,-19.6833,63.4167,80.49,70,32,15.7,MU,1707274786
187,elko,41.0002,-115.5012,35.64,93,100,1.01,US,1707275033
188,sao miguel do araguaia,-13.275,-50.1628,74.86,85,58,2.75,BR,1707275034
189,hobyo,5.3505,48.5268,78.24,86,95,15.26,SO,1707275034
190,dhanwar,24.4167,85.9833,60.82,46,0,11.59,IN,1707275034
191,vila franca do campo,37.7167,-25.4333,64.81,89,100,20.11,PT,1707274784
192,badger,64.8,-147.5333,4.35,82,75,4.61,US,1707274599
193,tshikapa,-6.4167,20.8,69.51,98,100,2.39,CD,1707275034
194,bikenibeu village,1.3673,173.1241,87.76,79,75,9.22,KI,1707274799
195,cosala,24.4125,-106.6908,63.43,77,54,2.62,MX,1707275034
196,abu jibeha,11.4562,31.2285,65.77,18,77,9.51,SD,1707274799
197,hammerfest,70.6634,23.6821,21.65,86,75,5.75,NO,1707274798
198,lebu,-37.6167,-73.65,63.68,97,100,1.5,CL,1707274784
199,enewetak,11.3474,162.3373,79.88,82,99,16.17,MH,1707274795
200,valparaiso,-33.0393,-71.6273,64.04,88,20,3.44,CL,1707274823
201,mount gambier,-37.8333,140.7667,71.53,42,66,8.12,AU,1707274864
202,mglin,53.0591,32.8475,27.18,97,100,12.97,RU,1707275035
203,anaconda,46.1285,-112.9423,33.04,97,100,1.45,US,1707275035
204,polyarnyy,69.1989,33.4478,-3.64,99,99,8.88,RU,1707274797
205,vredendal,-31.6683,18.5012,63.97,97,29,4.99,ZA,1707275035
206,newman,37.3138,-121.0208,51.3,87,100,5.32,US,1707274788
207,kafin hausa,12.2375,9.908,63.43,25,85,9.86,NG,1707275035
208,talnakh,69.4865,88.3972,-2.69,83,100,6.73,RU,1707274860
209,al jawf,29.5,38.75,46.76,76,3,5.93,SA,1707275035
210,vilyuchinsk,52.9306,158.4028,21.47,78,100,1.61,RU,1707274826
211,pacific grove,36.6177,-121.9166,53.42,78,75,10.0,US,1707274799
212,al ghayzah,16.2079,52.176,69.94,62,8,3.69,YE,1707275035
213,puerto lempira,15.2667,-83.7667,75.27,59,74,22.12,HN,1707274862
214,tralee,52.2704,-9.7026,38.62,86,99,4.76,IE,1707274791
215,pisco,-13.7,-76.2167,77.05,78,0,10.36,PE,1707274790
216,yorkton,51.2167,-102.4677,26.44,93,100,6.91,CA,1707274803
217,cadale,2.7603,46.3222,79.41,84,97,17.02,SO,1707275035
218,ploneour-lanvern,47.9,-4.2833,53.92,94,100,17.27,FR,1707275035
219,sassandra,4.95,-6.0833,79.47,77,9,2.35,CI,1707274917
220,dryden,49.7833,-92.7503,32.29,100,100,3.44,CA,1707274909
221,klyuchi,52.2667,79.1667,18.01,80,93,14.47,RU,1707274839
222,kingston,17.997,-76.7936,76.15,69,20,10.36,JM,1707274953
223,wenling,28.3669,121.36,39.11,91,100,13.29,CN,1707274832
224,pechora,65.1472,57.2244,-15.14,99,60,3.0,RU,1707275036
225,ola,59.5833,151.2833,2.14,79,97,7.05,RU,1707274797
226,novyy urengoy,66.0833,76.6333,-1.93,100,100,5.44,RU,1707275036
227,kalymnos,36.95,26.9833,60.33,77,75,6.91,GR,1707275036
228,keflavik,64.0049,-22.5624,30.11,80,75,23.02,IS,1707274853
229,box elder,41.5005,-112.8764,41.25,88,100,5.06,US,1707275036
230,villa gesell,-37.2639,-56.973,71.06,92,99,14.56,AR,1707275036
231,tippi,7.2,35.45,67.73,75,25,2.95,ET,1707275037
232,eyl,7.9803,49.8164,73.51,82,12,13.24,SO,1707274549
233,papao,-17.75,-149.55,83.88,88,100,25.32,PF,1707275037
234,vorkuta,67.5,64.0,-16.17,99,68,5.26,RU,1707274612
235,aasiaat,68.7098,-52.8699,16.16,80,100,16.04,GL,1707274796
236,lingyuan,41.24,119.4011,27.91,37,0,3.56,CN,1707275037
237,jacmel,18.2342,-72.5347,78.64,79,40,5.86,HT,1707275037
238,yelizovo,53.1873,158.3805,21.34,57,0,2.24,RU,1707274843
239,blythe,33.6103,-114.5964,57.29,62,100,12.06,US,1707275037
240,piacabucu,-10.4056,-36.4344,78.69,85,94,6.44,BR,1707275037
241,kone,-21.0595,164.8658,85.73,66,100,8.66,NC,1707274791
242,korsakov,46.6328,142.7813,13.84,75,6,2.08,RU,1707275037
243,island harbour,50.724,-1.2758,52.99,94,100,10.0,GB,1707274856
244,salto de agua,17.6167,-92.3667,65.53,85,95,1.99,MX,1707275037
245,tabou,4.423,-7.3528,80.38,81,21,4.25,CI,1707274846
246,sao jose da coroa grande,-8.8978,-35.1478,79.36,82,99,5.7,BR,1707275038
247,atafu village,-8.5421,-172.5159,84.22,79,93,23.24,TK,1707274781
248,martinsburg,39.4562,-77.9639,36.12,69,0,0.0,US,1707275035
249,wailua homesteads,22.0669,-159.378,73.74,77,37,8.99,US,1707274783
250,mejit,10.2753,170.8646,80.65,79,100,17.54,MH,1707275038
251,ikom,5.9667,8.7063,69.69,33,99,0.18,NG,1707275038
252,belmonte,-15.8631,-38.8828,78.24,85,81,3.91,BR,1707274806
253,sorong,-0.8833,131.25,82.87,71,100,4.21,ID,1707275038
254,karbala,32.616,44.0249,52.99,63,0,1.79,IQ,1707274827
255,al kharijah,25.4514,30.5464,51.39,64,2,8.1,EG,1707275038
256,kiunga,-6.1219,141.2906,73.76,99,100,4.65,PG,1707275038
257,tobelo,1.7284,128.0095,84.04,68,100,6.04,ID,1707274900
258,sena madureira,-9.0656,-68.6569,74.12,96,8,1.25,BR,1707275038
259,tura,25.5198,90.2201,64.09,68,0,2.51,IN,1707274784
260,'ain el berd,35.3639,-0.5128,47.21,56,0,11.59,DZ,1707275039
261,choyr,46.3611,108.3611,-0.29,88,67,5.17,MN,1707275039
262,rudbar,30.15,62.6,50.43,27,0,1.61,AF,1707274859
263,sadovoye,47.7764,44.5089,30.0,77,58,13.71,RU,1707275039
264,rock springs,41.5875,-109.2029,38.64,79,75,17.27,US,1707275039
265,pyhajarvi,67.0701,27.2176,-8.0,100,100,3.13,FI,1707275039
266,el nido,11.1858,119.3956,81.88,70,89,15.64,PH,1707275039
267,chonchi,-42.6128,-73.8092,58.21,70,54,7.05,CL,1707274914
268,ain taya,36.7933,3.2869,44.44,93,4,2.3,DZ,1707275039
269,eydhafushi,5.1033,73.0708,82.22,73,19,15.61,MV,1707275040
270,la sarre,48.8002,-79.1996,31.44,96,100,7.38,CA,1707274862
271,hasaki,35.7333,140.8333,50.29,46,83,11.95,JP,1707274854
272,talcahuano,-36.7167,-73.1167,65.88,94,100,6.91,CL,1707274950
273,kirensk,57.7853,108.1119,16.97,95,100,5.99,RU,1707275040
274,la ronge,55.1001,-105.2842,7.05,85,100,6.91,CA,1707275040
275,gadzhiyevo,69.2551,33.3362,-5.78,100,99,8.21,RU,1707274799
276,menongue,-14.6585,17.691,61.34,98,100,3.09,AO,1707275040
277,nueva gerona,21.8833,-82.8,68.09,59,3,19.19,CU,1707275040
278,uturoa,-16.7333,-151.4333,82.74,87,100,31.97,PF,1707274793
279,mawu,29.5923,107.3139,41.05,83,98,1.81,CN,1707274844
280,katsuren-haebaru,26.3369,127.8719,68.38,71,100,3.44,JP,1707275040
281,zouerate,22.7187,-12.4521,61.84,12,91,10.29,MR,1707275040
282,al qitena,14.8648,32.3668,62.51,18,53,14.63,SD,1707275041
283,ipil,7.75,122.5167,83.95,67,96,3.69,PH,1707275041
284,taltal,-25.4,-70.4833,70.3,85,26,2.98,CL,1707275041
285,argo,37.6333,22.7333,50.79,53,5,5.77,GR,1707275041
286,puerto varas,-41.3195,-72.9854,59.22,100,100,16.11,CL,1707275042
287,paragominas,-2.9667,-47.4833,72.88,98,20,3.02,BR,1707275042
288,raja,8.4596,25.678,67.05,20,5,5.86,SS,1707275042
289,kailua-kona,19.6406,-155.9956,79.5,69,42,4.0,US,1707274798
290,manavalakurichi,8.1333,77.3,79.2,61,7,7.07,IN,1707275042
291,nohar,29.1833,74.7667,53.13,41,94,6.51,IN,1707275044
292,douglas,41.3,-96.167,48.78,66,0,11.5,US,1707274986
293,dalton,34.7698,-84.9702,48.99,66,0,0.0,US,1707275045
294,hithadhoo,-0.6,73.0833,82.98,74,34,6.71,MV,1707274788
295,laascaanood,8.4774,47.3597,65.46,71,3,7.14,SO,1707275051
296,axim,4.8699,-2.2405,76.66,86,8,3.91,GH,1707275054
297,hargeysa,9.56,44.065,58.91,89,0,7.29,SO,1707275054
298,constantia,44.1833,28.65,47.08,66,99,11.72,RO,1707274797
299,miyaly,48.8844,53.7836,23.95,83,100,31.18,KZ,1707275060
300,ilhabela,-23.7781,-45.3581,75.24,91,100,3.8,BR,1707274783
301,san antonio de pale,-1.4014,5.6325,82.15,75,65,6.35,GQ,1707274897
302,tamanrasset,22.785,5.5228,37.31,28,0,2.3,DZ,1707274856
303,saeby,57.3319,10.5225,31.96,73,80,12.12,DK,1707275063
304,nuku'alofa,-21.1333,-175.2,84.54,70,40,10.36,TO,1707275065
305,faranah,10.0404,-10.7434,73.02,18,0,2.3,GN,1707274997
306,kuta,-8.7233,115.1723,87.75,74,20,9.22,ID,1707275003
307,alice springs,-23.7,133.8833,89.22,40,40,17.27,AU,1707274851
308,uusikaupunki,60.8004,21.4084,10.72,96,82,6.67,FI,1707274911
309,sinop,41.7711,34.8709,43.47,59,32,13.47,TR,1707274879
310,rawlins,41.7911,-107.2387,40.89,60,100,5.75,US,1707274978
311,beyla,8.6833,-8.6333,70.45,23,4,0.36,GN,1707275068
312,ad dilam,23.9915,47.1627,50.41,44,0,4.59,SA,1707274797
313,lagoa,39.05,-27.9833,61.05,90,87,24.2,PT,1707274997
314,rapar,23.5667,70.6333,69.85,77,99,12.1,IN,1707275068
315,zambezi,-13.5432,23.1047,64.42,98,98,4.47,ZM,1707275069
316,kampene,-3.6,26.6667,68.14,98,100,2.59,CD,1707275069
317,salinas,36.6777,-121.6555,52.84,82,40,11.5,US,1707275069
318,mantua,45.1667,10.7833,47.44,66,100,1.01,IT,1707275069
319,alo,7.4178,6.7371,76.05,21,87,2.95,NG,1707275069
320,san pedro,14.35,121.0167,88.36,63,20,6.91,PH,1707275069
321,saint-joseph,-21.3667,55.6167,73.78,78,82,3.6,RE,1707275069
322,foumban,5.7291,10.9001,64.87,34,29,2.19,CM,1707275069
323,surin,14.8818,103.4936,82.78,43,0,5.93,TH,1707274807
324,akureyri,65.6835,-18.0878,28.33,74,100,4.61,IS,1707274840
325,kirakira,-10.4544,161.9205,85.66,73,69,12.68,SB,1707274850
326,kodiak,57.79,-152.4072,36.97,79,100,23.38,US,1707274781
327,hadyach,50.3711,33.991,38.44,96,100,13.65,UA,1707275070
328,qulsary,46.9531,54.0198,28.56,78,100,26.49,KZ,1707275070
329,goroka,-6.0834,145.3873,74.43,75,94,1.99,PG,1707275070
330,sinabang,2.4803,96.3801,84.07,70,100,3.83,ID,1707274832
331,rio grande,-32.035,-52.0986,70.11,83,30,10.83,BR,1707274852
332,kenora,49.8167,-94.4337,32.97,100,100,2.3,CA,1707275070
333,al hufuf,25.3646,49.5653,50.34,46,0,0.0,SA,1707275070
334,port hedland,-20.3167,118.5667,100.45,13,85,21.85,AU,1707274959
335,usehat,27.8167,79.25,52.65,50,75,9.4,IN,1707275070
336,patterson,37.4716,-121.1297,53.06,88,100,5.41,US,1707274933
337,tsiroanomandidy,-18.7667,46.0333,67.69,98,99,2.62,MG,1707275071
338,tateyama,34.9833,139.8667,48.09,52,100,8.59,JP,1707274954
339,cockburn town,21.4612,-71.1419,76.01,64,79,26.57,TC,1707275071
340,jabor,5.921,169.6434,82.4,75,77,18.03,MH,1707275071
341,poxoreo,-15.8372,-54.3892,73.24,91,99,2.8,BR,1707275071
342,alofi,-19.0595,-169.9187,85.89,70,75,12.66,NU,1707274846
343,antsirabe,-19.85,47.0333,60.17,96,100,3.33,MG,1707275071
344,mar''ina horka,53.509,28.147,39.42,96,100,19.98,BY,1707275072
345,minas de marcona,-15.2119,-75.1103,67.53,90,98,10.22,PE,1707275072
346,shangmei,27.7428,111.2956,32.25,96,100,2.57,CN,1707275072
347,vilyuysk,63.7553,121.6247,-15.0,96,96,3.0,RU,1707274798
348,knyazhichi,50.4627,30.7837,46.89,76,100,17.72,UA,1707275072
349,tsiombe,-25.3,45.4833,72.23,92,5,3.42,MG,1707274828
350,flying fish cove,-10.4217,105.6791,82.08,78,100,6.91,CX,1707275072
351,port augusta,-32.5,137.7667,80.22,25,0,12.82,AU,1707274905
352,happy valley-goose bay,53.3168,-60.3315,-0.09,78,20,4.61,CA,1707274790
353,kitimat,54.0524,-128.6534,30.9,83,100,1.99,CA,1707274900
354,antofagasta,-23.65,-70.4,76.28,78,9,3.09,CL,1707274951
355,newnan,33.3807,-84.7997,48.42,75,0,0.0,US,1707274961
356,plettenberg bay,-34.0527,23.3716,67.59,83,55,5.68,ZA,1707275073
357,mbala,-8.8402,31.3659,59.27,87,100,1.39,ZM,1707274845
358,goundi,9.3627,17.366,71.94,20,91,4.29,TD,1707275073
359,murzuq,25.9155,13.9184,50.04,50,54,6.06,LY,1707274797
360,kincardine,56.0667,-3.7167,36.19,85,100,4.7,GB,1707275073
361,celikhan,38.0342,38.2433,30.72,66,0,4.27,TR,1707275073
362,rawson,-43.3002,-65.1023,77.18,52,100,15.26,AR,1707275073
363,baise city,23.8997,106.6133,52.68,80,100,2.62,CN,1707275073
364,puerto leguizamo,-0.1934,-74.7819,73.18,99,92,2.48,CO,1707275073
365,banda aceh,5.5577,95.3222,83.44,67,5,8.41,ID,1707274885
366,granada,37.25,-3.25,42.85,62,0,6.24,ES,1707274906
367,xifeng,42.7372,124.7222,17.04,67,9,0.45,CN,1707275074
368,okhotsk,59.3833,143.3,-2.29,76,100,9.53,RU,1707274861
369,uzes,44.0167,4.4167,46.15,81,100,7.81,FR,1707275074
370,i-n-salah,27.1935,2.4607,56.14,24,51,7.94,DZ,1707275074
371,teguise,29.0605,-13.564,59.22,67,0,6.91,ES,1707275074
372,kununurra,-15.7667,128.7333,93.18,59,25,4.61,AU,1707274615
373,sao tome,0.3365,6.7273,77.04,88,75,2.3,ST,1707275074
374,boise,43.6135,-116.2035,45.41,93,100,3.44,US,1707274803
375,hadibu,12.65,54.0333,75.9,74,43,7.61,YE,1707274916
376,bam,29.106,58.357,46.85,20,0,3.96,IR,1707275074
377,le vauclin,14.5452,-60.8388,82.6,74,100,16.2,MQ,1707275074
378,weno,7.4515,151.8468,81.68,72,93,20.02,FM,1707274793
379,codrington,-38.2667,141.9667,68.02,53,52,12.24,AU,1707274859
380,dazhou,31.2159,107.5009,42.91,83,100,4.45,CN,1707274914
381,meadow lake,34.8014,-106.5436,54.61,45,100,9.44,US,1707275074
382,christchurch,-43.5333,172.6333,78.33,62,68,16.11,NZ,1707275014
383,nova vicosa,-17.8919,-39.3719,78.21,86,100,5.23,BR,1707275075
384,dankalwa,11.7443,12.1867,60.35,42,94,8.61,NG,1707275075
385,cidade velha,14.9167,-23.6167,72.07,78,2,14.97,CV,1707275075
386,vanimo,-2.6741,141.3028,77.94,92,100,9.89,PG,1707275075
387,pathein,16.7833,94.7333,84.83,39,0,9.89,MM,1707275075
388,sitka,57.0531,-135.33,35.49,87,20,0.0,US,1707274800
389,betio village,1.358,172.9211,87.84,78,31,14.79,KI,1707274873
390,kokopo,-4.352,152.2633,84.54,74,100,14.0,PG,1707275075
391,fomboni,-12.28,43.7425,84.61,76,45,8.93,KM,1707275075
392,diawara,15.022,-12.5437,78.1,9,0,13.04,SN,1707275075
393,ciudad lazaro cardenas,17.9583,-102.2,76.44,78,12,2.77,MX,1707274796
394,la passe,45.5549,-0.8967,50.99,92,98,12.8,FR,1707274781
395,novodvinsk,64.4165,40.8122,-13.22,99,79,0.85,RU,1707275075
396,andergrove,-21.0833,149.1833,89.65,70,37,16.58,AU,1707275076
397,port elizabeth,-33.918,25.5701,73.09,89,0,13.8,ZA,1707274843
398,fort frances,48.5999,-93.4003,34.05,88,100,0.0,CA,1707275076
399,ujae,8.9322,165.7642,81.28,76,82,14.07,MH,1707275076
400,fallon,39.4735,-118.7774,39.07,89,100,5.75,US,1707275069
401,saint-pierre,-21.3393,55.4781,74.88,64,20,8.05,RE,1707275076
402,lysyye gory,51.5506,44.8414,12.6,95,96,11.56,RU,1707275076
403,urzhar,47.093,81.6294,17.76,73,73,4.63,KZ,1707275076
404,nelson bay,-32.7167,152.15,68.11,97,100,5.99,AU,1707275076
405,yerofey pavlovich,53.9667,121.9667,15.85,74,97,3.85,RU,1707275076
406,cidreira,-30.1811,-50.2056,74.25,86,100,13.13,BR,1707275076
407,yoloten,37.2989,62.3597,46.8,53,100,6.58,TM,1707275077
408,pianco,-7.1981,-37.9292,80.2,53,33,4.7,BR,1707275077
409,mohr,54.3528,9.7167,42.15,84,100,23.02,DE,1707275077
410,nieuw amsterdam,5.8833,-55.0833,77.16,89,2,7.56,SR,1707275077
411,amga,60.8953,131.9608,-17.1,96,100,1.36,RU,1707275077
412,attapeu,14.8,106.8333,87.62,47,78,2.89,LA,1707274787
413,vilhena,-12.7406,-60.1458,71.01,89,58,3.04,BR,1707275077
414,obock,12.25,43.0833,68.05,86,48,1.57,DJ,1707275077
415,geraldton,-28.7667,114.6,97.21,11,0,19.57,AU,1707274859
416,nova sintra,14.8667,-24.7167,69.66,72,0,13.38,CV,1707274869
417,bulawayo,-20.15,28.5833,67.21,60,7,5.37,ZW,1707275078
418,chadron,42.8294,-102.9999,42.15,82,0,9.22,US,1707275078
419,zorgo,12.2489,-0.6158,70.83,17,12,10.65,BF,1707275078
420,mwinilunga,-11.7358,24.4293,62.08,98,95,2.73,ZM,1707275078
421,greenville,35.6127,-77.3663,38.12,67,6,3.0,US,1707274866
422,farafangana,-22.8167,47.8333,75.2,93,83,8.08,MG,1707275078
423,ketchikan,55.3422,-131.6461,36.07,75,100,8.05,US,1707275078
424,alta,69.9689,23.2717,9.66,85,20,4.61,NO,1707275078
425,asahikawa,43.7678,142.3703,15.01,85,75,2.3,JP,1707275059
426,kencong,-8.2833,113.3667,83.77,74,100,3.67,ID,1707275078
427,caleta de carquin,-11.0925,-77.6267,76.24,81,11,9.08,PE,1707275079
428,ta`u,-14.2336,-169.5144,82.78,84,100,29.44,AS,1707274830
429,curanilahue,-37.4667,-73.35,63.9,92,98,2.26,CL,1707275079
430,gravenhurst,44.9168,-79.3663,30.34,80,0,0.0,CA,1707275079
431,turbat,26.0023,63.044,64.13,54,37,5.12,PK,1707275079
432,kavaratti,10.5669,72.642,82.38,72,32,8.7,IN,1707274787
433,tasek glugor,5.4803,100.4985,89.53,74,20,8.05,MY,1707275079
434,angaur state,6.906,134.13,81.09,80,93,21.77,PW,1707275079
435,aleg,17.0481,-13.9209,75.9,9,0,13.15,MR,1707275079
436,rikaze,29.25,88.8833,31.3,16,0,2.84,CN,1707274793
437,namangan,40.9983,71.6726,36.05,64,100,2.3,UZ,1707275079
438,rancho palos verdes,33.7445,-118.387,51.48,96,75,5.75,US,1707275080
439,yung shue wan,22.2333,114.1167,66.31,92,100,1.01,HK,1707275080
440,uribia,11.7139,-72.266,79.07,78,99,12.77,CO,1707275080
441,port said,31.2565,32.2841,59.23,85,0,8.14,EG,1707275080
442,kasongo,-4.45,26.6667,67.8,98,100,3.22,CD,1707275080
443,dwarka,22.2394,68.9678,72.48,71,86,10.51,IN,1707274792
444,coeur d'alene,47.6777,-116.7805,38.53,96,75,8.05,US,1707274870
445,russkaya polyana,49.417,31.9201,41.68,80,100,14.76,UA,1707275080
446,keetmanshoop,-26.5833,18.1333,74.32,25,100,11.5,NA,1707275080
447,mandan,46.8267,-100.8896,35.82,94,100,11.5,US,1707275035
448,oamaru,-45.0784,170.9801,61.38,78,86,9.08,NZ,1707275081
449,macenta,8.5435,-9.471,67.28,30,5,1.54,GN,1707275081
450,saudarkrokur,65.7461,-19.6394,24.6,77,67,7.78,IS,1707274782
451,beyneu,45.3167,55.2,30.38,75,51,23.35,KZ,1707275081
452,saldanha,-33.0117,17.9442,62.65,94,0,8.14,ZA,1707274843
453,mahina,-17.5065,-149.489,83.97,79,75,14.97,PF,1707275081
454,carboneras,37.0015,-1.9213,64.9,53,16,4.5,ES,1707275081
455,jericho,31.8667,35.45,57.67,94,1,1.68,PS,1707275081
456,anthem,33.8673,-112.1468,55.81,83,100,20.87,US,1707275081
457,swift current,50.2834,-107.8014,31.01,100,100,19.57,CA,1707275081
458,ballina,-28.8667,153.5667,81.79,81,42,20.02,AU,1707275082
459,benjamin constant,-4.3831,-70.0311,75.33,98,100,2.13,BR,1707275082
460,qamdo,31.1667,97.2333,21.58,32,2,7.72,CN,1707275082
461,kokstad,-30.5472,29.4241,60.73,58,30,6.38,ZA,1707275082
462,kargasok,59.0556,80.8572,19.96,97,100,7.0,RU,1707275082
463,harper,4.375,-7.7169,79.92,84,72,4.76,LR,1707275082
464,salinopolis,-0.6136,-47.3561,80.4,86,86,10.42,BR,1707275082
465,kamyshevatskaya,46.4132,37.9563,42.3,89,100,12.68,RU,1707275082
466,calama,-22.4667,-68.9333,59.49,82,0,5.75,CL,1707274831
467,portland,45.5234,-122.6762,47.61,91,81,1.01,US,1707274950
468,chui,-33.6971,-53.4616,68.41,79,1,9.4,UY,1707274899
469,igarka,67.4667,86.5833,3.65,97,97,6.78,RU,1707274817
470,caxias,38.7031,-9.2767,61.47,84,40,5.75,PT,1707275083
471,kapuskasing,49.4169,-82.4331,35.69,93,75,8.05,CA,1707274784
472,east london,-33.0153,27.9116,73.56,78,100,20.76,ZA,1707274823
473,kristiansund,63.1115,7.732,18.25,93,7,3.44,NO,1707274840
474,nadym,65.5333,72.5167,3.76,98,96,8.7,RU,1707274849
475,payyannur,12.1,75.2,78.42,61,5,2.93,IN,1707275083
476,corowa,-36.0333,146.3833,81.41,45,0,4.43,AU,1707275083
477,gangapur,26.4833,76.7167,55.96,41,83,5.44,IN,1707275083
478,minbu,20.1833,94.8833,79.83,37,0,4.94,MM,1707275083
479,figuig (centre),32.1089,-1.2286,48.11,32,0,6.06,MA,1707274791
480,la'ie,21.6477,-157.9253,80.56,72,12,22.55,US,1707274835
481,omsk,55.0,73.4,17.49,72,0,11.18,RU,1707274817
482,timimoun,29.2639,0.231,48.58,43,0,4.61,DZ,1707275083
483,coquimbo,-29.9533,-71.3436,65.93,94,0,4.61,CL,1707274822
484,negombo,7.2083,79.8358,75.25,83,20,4.61,LK,1707275083
485,alice,27.7523,-98.0697,56.64,82,0,6.91,US,1707275083
486,filey,54.21,-0.2892,41.79,79,100,11.97,GB,1707275084
487,port angeles,48.1181,-123.4307,46.78,78,100,5.75,US,1707275084
488,taro,-8.3862,115.28,80.6,59,78,3.94,ID,1707275084
489,si sa ket,14.8333,104.3333,89.06,50,1,5.39,TH,1707275084
490,richards bay,-28.783,32.0377,69.64,88,47,9.06,ZA,1707275084
491,saint-florent-sur-cher,46.9955,2.2508,48.36,83,94,12.97,FR,1707275084
492,gulf breeze,30.3571,-87.1639,56.95,64,0,4.61,US,1707275084
493,itacare,-14.2775,-38.9967,77.56,85,65,3.49,BR,1707275084
494,kharp,66.8014,65.8081,-5.6,100,100,2.64,RU,1707275084
495,mao,39.8885,4.2658,52.36,100,100,3.44,ES,1707275084
496,khromtau,50.2503,58.4347,17.35,91,100,30.31,KZ,1707275084
497,bosobolo,4.1833,19.9,73.51,39,29,2.77,CD,1707275084
498,inirida,3.8653,-67.9239,74.82,94,89,1.81,CO,1707274685
499,klaksvik,62.2266,-6.589,31.12,66,100,27.25,FO,1707275085
500,fort-shevchenko,44.5086,50.263,35.83,86,100,27.92,KZ,1707275085
501,qinggang,46.6833,126.0833,9.75,87,20,6.51,CN,1707275085
502,gilgit,35.9221,74.3087,20.77,74,100,3.22,PK,1707275085
503,namyslow,51.0759,17.7228,48.0,68,100,23.49,PL,1707275085
504,mushie,-3.0167,16.9,73.06,83,96,2.98,CD,1707274900
505,santiago,-33.4569,-70.6483,75.34,49,0,8.05,CL,1707274939
506,yuzhno-kurilsk,44.0306,145.8556,21.38,63,18,6.42,RU,1707274798
507,gaziantep,37.0594,37.3825,39.13,93,0,5.75,TR,1707274837
508,bierutow,51.1244,17.5461,49.75,78,100,23.13,PL,1707275085
509,tongliao,43.6125,122.2653,16.48,65,9,6.11,CN,1707275085
510,bodo,67.28,14.405,23.04,97,100,14.97,NO,1707274579
511,st. john's,47.5649,-52.7093,32.14,91,100,28.01,CA,1707274796
512,dakhla,23.6848,-15.958,68.18,39,67,10.45,EH,1707275086
513,biloela,-24.4167,150.5,98.02,31,1,12.5,AU,1707275086
514,greymouth,-42.4667,171.2,67.98,67,56,7.11,NZ,1707275086
515,nabire,-3.3667,135.4833,78.67,86,100,3.47,ID,1707274796
516,chanika,-5.4167,38.0167,70.05,94,96,2.48,TZ,1707275086
517,usinsk,65.9939,57.5281,-11.92,100,87,5.01,RU,1707274811
518,nagqu,31.5,92.0,20.17,14,1,14.41,CN,1707275086
519,maloye ganyushkino,46.6,49.2667,30.54,74,26,19.69,KZ,1707275086
520,punta del este,-34.9667,-54.95,73.51,79,0,11.5,UY,1707275086
521,trang,7.5,99.5,82.35,78,20,3.44,TH,1707275086
522,miri,4.4148,114.0089,86.14,74,40,5.75,MY,1707275086
523,tofol,5.3248,163.0078,82.44,74,2,16.37,FM,1707274876
524,ca mau,9.1769,105.15,87.76,54,100,8.59,VN,1707275086
525,mayya,61.7333,130.2811,-33.48,94,100,3.15,RU,1707275087
526,vila do maio,15.1333,-23.2167,72.39,70,2,10.69,CV,1707275087
527,rabaul,-4.1967,152.1721,84.78,73,98,16.93,PG,1707275087
528,mutuali,-14.8706,37.0044,70.09,96,100,0.47,MZ,1707275087
529,puerto armuelles,8.2833,-82.8667,78.78,84,25,3.0,PA,1707275087
530,magdagachi,53.45,125.8,15.01,74,100,5.21,RU,1707275087
531,road town,18.4167,-64.6167,78.89,94,40,8.05,VG,1707275087
532,manokwari,-0.8667,134.0833,80.46,77,100,9.46,ID,1707275087
533,west vancouver,49.3323,-123.1622,42.44,89,20,4.61,CA,1707274905
534,sungai penuh,-2.0833,101.3833,77.09,67,97,2.73,ID,1707275088
535,siasi,5.5462,120.8145,80.17,75,47,3.71,PH,1707275088
536,edd,13.9297,41.6925,76.3,80,98,7.76,ER,1707275088
537,kaa-khem,51.6833,94.7333,-19.59,99,68,1.12,RU,1707274863
538,khargone,21.8167,75.6,70.79,52,93,4.47,IN,1707275088
539,ghat,24.9647,10.1728,50.36,41,4,4.85,LY,1707274782
540,bolobo,-2.1667,16.2333,74.26,78,63,2.75,CD,1707275088
541,doullens,50.1572,2.3402,52.61,85,100,25.03,FR,1707275088
542,kasongo-lunda,-6.4667,16.8167,69.84,97,100,1.61,CD,1707275088
543,remire-montjoly,4.9167,-52.2667,78.84,100,40,4.61,GF,1707274794
544,marabba,12.35,32.1833,64.94,19,88,13.91,SD,1707275088
545,san luis de la loma,17.2706,-100.8939,75.85,82,16,0.76,MX,1707275088
546,zapala,-38.8992,-70.0544,67.6,59,100,25.39,AR,1707275088
547,nanjing,32.0617,118.7778,35.51,68,78,6.06,CN,1707275088
548,al bardiyah,31.7561,25.0865,57.27,71,0,8.79,LY,1707275089
549,ormara,25.2088,64.6357,70.43,54,100,4.36,PK,1707275089
550,kajaani,64.2273,27.7285,-3.95,84,100,4.61,FI,1707275089
551,zhovti vody,48.3473,33.5003,40.08,83,100,12.73,UA,1707275089
552,copala,16.65,-98.9833,75.36,81,14,3.67,MX,1707275089
553,mbandjok,4.45,11.9,65.98,41,62,0.67,CM,1707275089
554,mersa matruh,31.3525,27.2453,57.49,69,0,6.46,EG,1707274848
555,chantada,42.6088,-7.7712,46.69,94,100,4.36,ES,1707275089
556,howard springs,-12.497,131.047,92.98,74,18,9.26,AU,1707274782
557,sao vicente,-23.9631,-46.3919,80.78,26,100,3.02,BR,1707275006
558,mokhsogollokh,61.4681,128.9203,-11.29,95,100,1.45,RU,1707275089
559,las brenas,-27.0897,-61.0816,77.41,73,100,7.25,AR,1707275089
560,luena,-11.7833,19.9167,62.78,100,0,2.3,AO,1707275090
561,funafuti,-8.5243,179.1942,87.8,79,75,19.57,TV,1707275090
562,fuyu,45.1833,124.8167,13.21,75,3,4.63,CN,1707275090
563,baracoa,20.3467,-74.4958,68.29,65,0,9.86,CU,1707275004
564,bodaybo,57.8506,114.1933,14.65,92,100,4.59,RU,1707275090
565,zeya,53.75,127.2667,2.48,85,100,1.77,RU,1707275090
566,kavieng,-2.5744,150.7967,81.73,82,98,9.33,PG,1707275090
567,tarko-sale,64.9225,77.785,15.04,95,100,7.67,RU,1707275090
568,ormond-by-the-sea,29.3491,-81.0665,57.22,68,0,16.11,US,1707275090
569,luderitz,-26.6481,15.1594,65.55,79,70,12.17,NA,1707274792
570,kisangani,0.5167,25.2,74.77,54,97,0.87,CD,1707274823
571,taksimo,56.3444,114.8794,5.36,84,99,1.03,RU,1707275090
572,gardez,33.5974,69.2259,15.94,82,28,3.06,AF,1707275091
573,ocean shores,46.9737,-124.1563,45.95,79,40,5.75,US,1707275070
574,marrakesh,31.6315,-8.0083,51.87,43,0,4.61,MA,1707274854
575,piti village,13.4626,144.6933,85.08,63,20,16.11,GU,1707275091
576,munderkingen,48.2357,9.644,41.9,90,40,11.5,DE,1707275091
577,moires,35.0532,24.8744,59.13,76,68,8.01,GR,1707275091
578,bokoro,12.3807,17.0568,64.17,21,96,10.96,TD,1707275091
579,ibimirim,-8.5406,-37.6903,75.92,70,69,7.61,BR,1707275091
580,buala,-8.145,159.5921,84.58,79,61,14.36,SB,1707275091
581,williamsport,41.2412,-77.0011,33.82,78,2,2.82,US,1707274898
